Year,Month,FIPS,Locality,Households Served,Individuals Served,Pounds of Food Distributed,Children Served via non-federal child nutrition programs,Pounds of food distributed via non-federal child nutrition progr,LAT,LON,MTW Status,Geopoint
2020,October,97,King and Queen,,,156644,,,37.7143698,-76.901863,Non-matching,POINT (-76.901863 37.7143698)
2019,April,115,Mathews County,,,21602,0,,37.4253479,-76.2688078,Non-matching,POINT (-76.2688078 37.4253479)
2019,August,97,King and Queen,,,51338,,,37.7143698,-76.901863,Non-matching,POINT (-76.901863 37.7143698)
2020,May,133,Northumberland County,270,627,67633,,,37.8569736,-76.3796872,Matching and updated,POINT (-76.3796872 37.8569736)
2019,May,97,King and Queen,,,54561,,,37.7143698,-76.901863,Non-matching,POINT (-76.901863 37.7143698)
2020,June,760,Richmond City,2,4,,,,37.531399,-77.4760085,Matching and updated,POINT (-77.4760085 37.531399)
2020,June,61,Fauquier County,3,8,,,,38.7441032,-77.8215847,Matching and updated,POINT (-77.8215847 38.7441032)
2020,May,13,Arlington County,,,35710.515,,,38.8783374,-77.1007034,Matching and updated,POINT (-77.1007034 38.8783374)
2019,December,595,Emporia City,54,87,14318,,,36.696182,-77.5359753,Matching and updated,POINT (-77.5359753 36.696182)
2019,February,11,Appomattox County,798,1280,31341.32,,0,37.3707253,-78.8109404,Matching and updated,POINT (-78.8109404 37.3707253)
2019,March,690,Martinsville City,393,1526,11493.75,147,0,36.6835269,-79.8636475,Matching and updated,POINT (-79.8636475 36.6835269)
2021,January,143,Pittsylvania County,,,0,0,0,36.8217206,-79.3985019,Matching and updated,POINT (-79.3985019 36.8217206)
2019,September,109,Louisa County,1411,2890,42024,,,37.9716808,-77.9591779,Matching and updated,POINT (-77.9591779 37.9716808)
2021,April,159,Richmond County,27,74,446632,,,37.9428935,-76.7305609,Matching and updated,POINT (-76.7305609 37.9428935)
2020,August,103,Lancaster County,463,873,70896,,,37.7038307,-76.4131985,Matching and updated,POINT (-76.4131985 37.7038307)
2021,June,165,Rockingham County,1300,2606,73972.38,281,461,38.5112574,-78.876307,Matching and updated,POINT (-78.876307 38.5112574)
2020,May,17,Bath County,311,660,21773.98,,0,38.0689876,-79.732898,Matching and updated,POINT (-79.732898 38.0689876)
2019,April,185,Tazewell County,2724,6175,81717.1,40,0,37.1253949,-81.5629237,Matching and updated,POINT (-81.5629237 37.1253949)
2019,July,630,Fredericksburg City,868,2024,59548,505,926,38.2992718,-77.4866583,Matching and updated,POINT (-77.4866583 38.2992718)
2020,June,99,King George County,223,557,10302.41,,0,38.2771787,-77.1627015,Matching and updated,POINT (-77.1627015 38.2771787)
2019,April,63,Floyd County,356,926,14345.73,,0,36.9314381,-80.3503087,Matching and updated,POINT (-80.3503087 36.9314381)
2020,June,167,Russell County,757,1709,26444.75,,0,36.9334198,-82.0959342,Matching and updated,POINT (-82.0959342 36.9334198)
2019,February,57,Essex County,231,499,25856,,,37.9394802,-76.9418713,Matching and updated,POINT (-76.9418713 37.9394802)
2021,May,135,Nottoway County,205,687,19097,,,37.1436955,-78.0521623,Matching and updated,POINT (-78.0521623 37.1436955)
2020,March,115,Mathews County,,,27560,0,,37.4253479,-76.2688078,Non-matching,POINT (-76.2688078 37.4253479)
2019,November,79,Greene County,536,1354,44019.57,86,1422,38.2979805,-78.4701629,Matching and updated,POINT (-78.4701629 38.2979805)
2020,June,109,Louisa County,1205,2289,11084,,,37.9716808,-77.9591779,Matching and updated,POINT (-77.9591779 37.9716808)
2019,July,81,Greensville County,74,269,158112,,,36.6802247,-77.5602607,Matching and updated,POINT (-77.5602607 36.6802247)
2020,March,700,Newport News City,1641,4134,322903,450,16054,37.0759784,-76.5217187,Matching and updated,POINT (-76.5217187 37.0759784)
2019,April,149,Prince George County,2,2,,,,37.1873255,-77.2209931,Matching and updated,POINT (-77.2209931 37.1873255)
2020,December,163,Rockbridge County,96,2604,3781.12,,0,37.8145174,-79.4477537,Matching and updated,POINT (-79.4477537 37.8145174)
2020,August,730,Petersburg City,0,10265,0,,,37.2047302,-77.3923681,Matching and updated,POINT (-77.3923681 37.2047302)
2021,June,37,Charlotte County,796,1323,15227,,,37.0140909,-78.661424,Matching and updated,POINT (-78.661424 37.0140909)
2021,August,89,Henry County,2822,6523,74249.53,,0,36.6206074,-79.9806728,Matching and updated,POINT (-79.9806728 36.6206074)
2020,August,67,Franklin County,664,2285,37424.86,,0,36.9923498,-79.8839586,Matching and updated,POINT (-79.8839586 36.9923498)
2020,May,51,Dickenson County,703,1390,33592,,0,37.137081,-82.3492083,Matching and updated,POINT (-82.3492083 37.137081)
2019,August,115,Mathews County,,,30514,,,37.4253479,-76.2688078,Non-matching,POINT (-76.2688078 37.4253479)
2021,May,97,King and Queen County,274,635,203555,,,37.7143698,-76.901863,Matching and updated,POINT (-76.901863 37.7143698)
2020,November,195,Wise County,1337,3817,56497.97,,0,36.9745607,-82.6215601,Matching and updated,POINT (-82.6215601 36.9745607)
2020,April,1,Accomack County,1490,5048,111528,232,0,37.7659435,-75.7578073,Matching and updated,POINT (-75.7578073 37.7659435)
2020,July,63,Floyd County,317,726,14378.35,,0,36.9314381,-80.3503087,Matching and updated,POINT (-80.3503087 36.9314381)
2021,September,5,Alleghany County,,,15113.6,,0,37.7879048,-80.008669,Matching and updated,POINT (-80.008669 37.7879048)
2020,May,640,Galax City,327,784,16926,,0,36.6656397,-80.9143083,Matching and updated,POINT (-80.9143083 36.6656397)
2020,August,117,Mecklenburg County,1621,2672,10002,,,36.6872563,-78.3689592,Matching and updated,POINT (-78.3689592 36.6872563)
2020,December,113,Madison County,237,581,42069.17,,0,38.4120586,-78.2769613,Matching and updated,POINT (-78.2769613 38.4120586)
2020,February,520,Bristol City,445,2247,2610,110,0,36.6169541,-82.1575641,Matching and updated,POINT (-82.1575641 36.6169541)
2020,December,540,Charlottesville City,1903,11702,47021.09,0,0,38.0376579,-78.4853806,Matching and updated,POINT (-78.4853806 38.0376579)
2020,July,760,Richmond City,7013,13931,38324,,,37.531399,-77.4760085,Matching and updated,POINT (-77.4760085 37.531399)
2019,February,177,Spotsylvania County,2364,7586,158855,194,9767,38.1823112,-77.6562804,Matching and updated,POINT (-77.6562804 38.1823112)
2021,June,159,Richmond County,27,72,740260,,,37.9428935,-76.7305609,Matching and updated,POINT (-76.7305609 37.9428935)
2019,November,65,Fluvanna County,474,953,20265.43,132,3071,37.8305761,-78.2844345,Matching and updated,POINT (-78.2844345 37.8305761)
2020,July,760,Richmond City,0,10670,0,,,37.531399,-77.4760085,Matching and updated,POINT (-77.4760085 37.531399)
2019,February,179,Stafford County,1330,3950,42641,1069,2566,38.4153856,-77.4548719,Matching and updated,POINT (-77.4548719 38.4153856)
2021,January,690,Martinsville City,241,2027,14564.8,,0,36.6835269,-79.8636475,Matching and updated,POINT (-79.8636475 36.6835269)
2021,April,21,Bland County,179,427,51652.53,,0,37.1306124,-81.1258532,Matching and updated,POINT (-81.1258532 37.1306124)
2021,March,775,Salem City,464,1216,24336.3,,0,37.2853329,-80.0552407,Matching and updated,POINT (-80.0552407 37.2853329)
2020,November,193,Westmoreland County,360,905,6569,,,38.109238,-76.8040731,Matching and updated,POINT (-76.8040731 38.109238)
2020,February,181,Surry County,117,198,18275,0,,37.1197611,-76.8801717,Matching and updated,POINT (-76.8801717 37.1197611)
2020,December,7,Amelia County,226,625,14855,,,37.3319271,-77.9774619,Matching and updated,POINT (-77.9774619 37.3319271)
2019,July,1,Accomack County,1542,4451,98817,0,0,37.7659435,-75.7578073,Matching and updated,POINT (-75.7578073 37.7659435)
2019,May,153,Prince William County,23,88,168,,0,38.7011187,-77.4795791,Matching and updated,POINT (-77.4795791 38.7011187)
2020,August,690,Martinsville City,181,2380,11724.22,,0,36.6835269,-79.8636475,Matching and updated,POINT (-79.8636475 36.6835269)
2019,June,47,Culpeper County,21,57,,,,38.4859303,-77.9564758,Matching and updated,POINT (-77.9564758 38.4859303)
2020,May,670,Hopewell City,0,865,0,,,37.2910098,-77.2989443,Matching and updated,POINT (-77.2989443 37.2910098)
2020,June,35,Carroll County,285,717,17018.6,,0,36.7324256,-80.728043,Matching and updated,POINT (-80.728043 36.7324256)
2019,November,143,Pittsylvania County,648,1563,17708.05,,0,36.8217206,-79.3985019,Matching and updated,POINT (-79.3985019 36.8217206)
2019,August,105,Lee County,470,1350,27360.9,,0,36.7017206,-83.1301117,Matching and updated,POINT (-83.1301117 36.7017206)
2019,July,113,Madison County,281,647,20538.41,,0,38.4120586,-78.2769613,Matching and updated,POINT (-78.2769613 38.4120586)
2019,December,85,Hanover County,606,2283,629,,,37.7601655,-77.4909916,Matching and updated,POINT (-77.4909916 37.7601655)
2019,January,199,York County,299,882,51866,215,2068,37.2209139,-76.395533,Matching and updated,POINT (-76.395533 37.2209139)
2020,June,141,Patrick County,765,2229,27628,,0,36.6673274,-80.2861409,Matching and updated,POINT (-80.2861409 36.6673274)
2021,August,77,Grayson County,797,2242,56293.03,,0,36.6563026,-81.2253365,Matching and updated,POINT (-81.2253365 36.6563026)
2020,April,670,Hopewell City,132,130,26705,,,37.2910098,-77.2989443,Matching and updated,POINT (-77.2989443 37.2910098)
2021,April,820,Waynesboro City,199,423,13959.51,100,2052,38.0671571,-78.9014197,Matching and updated,POINT (-78.9014197 38.0671571)
2019,June,790,STAUNTON CITY,480,5367,22940.35,,1136,38.1580558,-79.0615011,Matching and updated,POINT (-79.0615011 38.1580558)
2019,June,137,Orange County,288,693,6683,,0,38.2504394,-78.0099795,Matching and updated,POINT (-78.0099795 38.2504394)
2020,October,9,Amherst County,1460,3269,114609.86,1108,4100,37.6303621,-79.1478477,Matching and updated,POINT (-79.1478477 37.6303621)
2019,January,570,Colonial Heights City,0,2497,0,,,37.2616846,-77.3968043,Matching and updated,POINT (-77.3968043 37.2616846)
2020,March,63,Floyd County,455,1032,13990.62,,0,36.9314381,-80.3503087,Matching and updated,POINT (-80.3503087 36.9314381)
2020,January,87,Henrico County,9,15,,,,37.4375205,-77.300333,Matching and updated,POINT (-77.300333 37.4375205)
2020,October,670,Hopewell City,0,1109,0,,,37.2910098,-77.2989443,Matching and updated,POINT (-77.2989443 37.2910098)
2021,January,11,Appomattox County,994,1812,39667.02,,0,37.3707253,-78.8109404,Matching and updated,POINT (-78.8109404 37.3707253)
2020,March,127,New Kent County,483,1307,0,,,37.5029094,-76.9828566,Matching and updated,POINT (-76.9828566 37.5029094)
2020,September,590,Danville City,2298,5963,109065.7,,0,36.5833337,-79.4080707,Matching and updated,POINT (-79.4080707 36.5833337)
2019,April,61,Fauquier County,772,1635,67229.36,,0,38.7441032,-77.8215847,Matching and updated,POINT (-77.8215847 38.7441032)
2019,August,117,Mecklenburg County,1197,32657,8211,,,36.6872563,-78.3689592,Matching and updated,POINT (-78.3689592 36.6872563)
2020,September,143,Pittsylvania County,,,0,0,0,36.8217206,-79.3985019,Matching and updated,POINT (-79.3985019 36.8217206)
2021,March,730,Petersburg City,620,1402,6156,,,37.2047302,-77.3923681,Matching and updated,POINT (-77.3923681 37.2047302)
2019,April,183,Sussex County,106,284,9433,,,36.9266454,-77.2597319,Matching and updated,POINT (-77.2597319 36.9266454)
2020,June,97,King and Queen County,394,821,227504,,,37.7143698,-76.901863,Matching and updated,POINT (-76.901863 37.7143698)
2019,April,179,Stafford County,1300,3578,56980,1356,1780,38.4153856,-77.4548719,Matching and updated,POINT (-77.4548719 38.4153856)
2019,July,183,Sussex County,243,539,10537,0,0,36.9266454,-77.2597319,Matching and updated,POINT (-77.2597319 36.9266454)
2020,July,49,Cumberland County,778,1171,51633,,,37.5201891,-78.2528364,Matching and updated,POINT (-78.2528364 37.5201891)
2021,March,173,Smyth County,514,1374,96998,368,9800,36.8423183,-81.5397861,Matching and updated,POINT (-81.5397861 36.8423183)
2020,April,650,Hampton City,2761,8349,329989,410,6825,37.0480303,-76.2971486,Matching and updated,POINT (-76.2971486 37.0480303)
2020,June,775,Salem City,1299,3952,75983.9,,0,37.2853329,-80.0552407,Matching and updated,POINT (-80.0552407 37.2853329)
2019,February,59,Fairfax County,,,546811.851,,1476,38.8337425,-77.2761174,Matching and updated,POINT (-77.2761174 38.8337425)
2020,August,820,Waynesboro City,251,579,16712.23,80,0,38.0671571,-78.9014197,Matching and updated,POINT (-78.9014197 38.0671571)
2019,July,730,Petersburg City,1110,2508,13967,,,37.2047302,-77.3923681,Matching and updated,POINT (-77.3923681 37.2047302)
2019,December,133,Northumberland County,279,708,69647,,,37.8569736,-76.3796872,Matching and updated,POINT (-76.3796872 37.8569736)
2020,November,47,Culpeper County,852,2273,60094.19,,0,38.4859303,-77.9564758,Matching and updated,POINT (-77.9564758 38.4859303)
2020,April,101,King William County,144,4568,11537,,,37.7082604,-77.0910539,Matching and updated,POINT (-77.0910539 37.7082604)
2021,June,690,Martinsville City,196,1378,12406.5,,444,36.6835269,-79.8636475,Matching and updated,POINT (-79.8636475 36.6835269)
2019,August,159,Richmond County,1,1,,,,37.9428935,-76.7305609,Matching and updated,POINT (-76.7305609 37.9428935)
2019,April,760,Richmond City,5939,12279,21247,,,37.531399,-77.4760085,Matching and updated,POINT (-77.4760085 37.531399)
2020,March,540,Charlottesville City,1295,7093,56563.62,0,0,38.0376579,-78.4853806,Matching and updated,POINT (-78.4853806 38.0376579)
2020,April,79,Greene County,734,1914,58914.57,77,1572,38.2979805,-78.4701629,Matching and updated,POINT (-78.4701629 38.2979805)
2020,February,193,Westmoreland County,36,94,2781.8,,0,38.109238,-76.8040731,Matching and updated,POINT (-76.8040731 38.109238)
2021,July,27,Buchanan County,1119,2549,75861.03,,1062,37.2681198,-82.0381508,Matching and updated,POINT (-82.0381508 37.2681198)
2020,May,125,Nelson County,745,1472,43747.28,,0,37.7900492,-78.8793535,Matching and updated,POINT (-78.8793535 37.7900492)
2019,September,69,Frederick County,3312,5506,54295.46,,0,39.203637,-78.2639164,Matching and updated,POINT (-78.2639164 39.203637)
2019,April,153,Prince William County,,,278132.2282,,,38.7011187,-77.4795791,Matching and updated,POINT (-77.4795791 38.7011187)
2020,March,43,CLARKE COUNTY,166,275,9345.54,82,1169,39.1159309,-77.9920039,Matching and updated,POINT (-77.9920039 39.1159309)
2021,January,113,Madison County,208,503,35939.6,,0,38.4120586,-78.2769613,Matching and updated,POINT (-78.2769613 38.4120586)
2020,November,595,Emporia City,88,132,25963,,,36.696182,-77.5359753,Matching and updated,POINT (-77.5359753 36.696182)
2019,July,71,Giles County,376,725,12760,57,0,37.3119298,-80.7171778,Matching and updated,POINT (-80.7171778 37.3119298)
2020,October,167,Russell County,864,2021,47576.38,,0,36.9334198,-82.0959342,Matching and updated,POINT (-82.0959342 36.9334198)
2019,March,41,Chesterfield County,5,5,,,,37.3784338,-77.5858474,Matching and updated,POINT (-77.5858474 37.3784338)
2019,April,800,Suffolk City,1939,4689,55596,251,4396,36.6971573,-76.6347808,Matching and updated,POINT (-76.6347808 36.6971573)
2019,March,620,Franklin City,1026,2237,25807,67,1623,36.6840142,-76.9413956,Matching and updated,POINT (-76.9413956 36.6840142)
2020,October,97,King and Queen County,0,0,0,,,37.7143698,-76.901863,Matching and updated,POINT (-76.901863 37.7143698)
2019,September,31,Campbell County,958,2146,81102.6,142,1894,37.210151,-79.0954285,Matching and updated,POINT (-79.0954285 37.210151)
2019,March,115,Mathews County,,,20931,0,,37.4253479,-76.2688078,Non-matching,POINT (-76.2688078 37.4253479)
2019,August,183,Sussex County,127,355,6405,,,36.9266454,-77.2597319,Matching and updated,POINT (-77.2597319 36.9266454)
2021,June,35,Carroll County,209,521,10098.88,,0,36.7324256,-80.728043,Matching and updated,POINT (-80.728043 36.7324256)
2020,June,760,Richmond City,6940,13809,31487,,,37.531399,-77.4760085,Matching and updated,POINT (-77.4760085 37.531399)
2020,November,127,New Kent County,430,1213,0,,,37.5029094,-76.9828566,Matching and updated,POINT (-76.9828566 37.5029094)
2020,October,75,Goochland County,153,515,111367,,,37.7241655,-77.9142733,Matching and updated,POINT (-77.9142733 37.7241655)
2020,June,13,Arlington County,,,51891.97313,,,38.8783374,-77.1007034,Matching and updated,POINT (-77.1007034 38.8783374)
2019,November,5,Alleghany County,414,1147,28800.9,,0,37.7879048,-80.008669,Matching and updated,POINT (-80.008669 37.7879048)
2020,April,590,Danville City,2336,6442,109651.14,,5217,36.5833337,-79.4080707,Matching and updated,POINT (-79.4080707 36.5833337)
2021,January,187,Warren County,280,749,33184.06,45,205,38.9081874,-78.2071314,Matching and updated,POINT (-78.2071314 38.9081874)
2019,January,750,Radford City,743,1667,31545.63,437,627,37.120036,-80.5570481,Matching and updated,POINT (-80.5570481 37.120036)
2019,September,27,Buchanan County,1677,3821,78807.33,,4027,37.2681198,-82.0381508,Matching and updated,POINT (-82.0381508 37.2681198)
2019,October,89,Henry County,3570,6387,75285.78,241,399,36.6206074,-79.9806728,Matching and updated,POINT (-79.9806728 36.6206074)
2021,February,720,Norton City,383,1088,36799.6,,0,36.9315489,-82.625996,Matching and updated,POINT (-82.625996 36.9315489)
2021,January,67,Franklin County,643,2087,25937.07,274,658,36.9923498,-79.8839586,Matching and updated,POINT (-79.8839586 36.9923498)
2021,February,57,Essex County,275,632,21087,,,37.9394802,-76.9418713,Matching and updated,POINT (-76.9418713 37.9394802)
2021,April,660,Harrisonburg City,1734,5602,138251.99,256,8411,38.4316694,-78.8760274,Matching and updated,POINT (-78.8760274 38.4316694)
2019,June,21,Bland County,582,1371,21764,,0,37.1306124,-81.1258532,Matching and updated,POINT (-81.1258532 37.1306124)
2021,April,143,Pittsylvania County,448,1054,27462.15,,0,36.8217206,-79.3985019,Matching and updated,POINT (-79.3985019 36.8217206)
2020,July,36,Charles City County,207,577,25624,,,37.3610537,-77.05417,Matching and updated,POINT (-77.05417 37.3610537)
2019,February,670,Hopewell City,12,27,12791,,,37.2910098,-77.2989443,Matching and updated,POINT (-77.2989443 37.2910098)
2021,June,71,Giles County,221,299,12407,,0,37.3119298,-80.7171778,Matching and updated,POINT (-80.7171778 37.3119298)
2020,February,730,Petersburg City,1037,2389,1635,,,37.2047302,-77.3923681,Matching and updated,POINT (-77.3923681 37.2047302)
2020,June,580,Covington City,272,4198,21605.5,,0,37.7781426,-79.986039,Matching and updated,POINT (-79.986039 37.7781426)
2019,November,115,Mathews County,,,24286,0,,37.4253479,-76.2688078,Non-matching,POINT (-76.2688078 37.4253479)
2021,September,63,Floyd County,,,2968,,0,36.9314381,-80.3503087,Matching and updated,POINT (-80.3503087 36.9314381)
2020,January,187,Warren County,809,2502,44707.2,257,644,38.9081874,-78.2071314,Matching and updated,POINT (-78.2071314 38.9081874)
2019,April,113,Madison County,219,497,22589.6,,0,38.4120586,-78.2769613,Matching and updated,POINT (-78.2769613 38.4120586)
2019,April,41,Chesterfield County,743,10097,217334,,,37.3784338,-77.5858474,Matching and updated,POINT (-77.5858474 37.3784338)
2019,September,63,Floyd County,369,1057,13824.7,,0,36.9314381,-80.3503087,Matching and updated,POINT (-80.3503087 36.9314381)
2020,February,105,Lee County,455,1298,18705.73,,0,36.7017206,-83.1301117,Matching and updated,POINT (-83.1301117 36.7017206)
2021,March,43,CLARKE COUNTY,169,337,12030.38,64,810,39.1159309,-77.9920039,Matching and updated,POINT (-77.9920039 39.1159309)
2021,May,153,Prince William County,,,1288865.961,,28488,38.7011187,-77.4795791,Matching and updated,POINT (-77.4795791 38.7011187)
2020,June,183,Sussex County,34,81,12465,0,0,36.9266454,-77.2597319,Matching and updated,POINT (-77.2597319 36.9266454)
2020,February,660,Harrisonburg City,1805,6619,160438.39,124,2420,38.4316694,-78.8760274,Matching and updated,POINT (-78.8760274 38.4316694)
2021,July,155,Pulaski County,628,1579,29144.1,,0,37.0633853,-80.7134439,Matching and updated,POINT (-80.7134439 37.0633853)
2020,March,730,Petersburg City,0,7244,0,,,37.2047302,-77.3923681,Matching and updated,POINT (-77.3923681 37.2047302)
2019,February,820,Waynesboro City,626,1158,17149.23,354,7350,38.0671571,-78.9014197,Matching and updated,POINT (-78.9014197 38.0671571)
2021,March,97,King and Queen,,,137750,,,37.7143698,-76.901863,Non-matching,POINT (-76.901863 37.7143698)
2019,June,107,Loudoun County,1988,7245,147677.7,1380,31048,39.0811303,-77.6388572,Matching and updated,POINT (-77.6388572 39.0811303)
2020,February,750,Radford City,606,1605,22201.43,155,0,37.120036,-80.5570481,Matching and updated,POINT (-80.5570481 37.120036)
2021,February,165,Rockingham County,1288,2710,66820.65,303,7788,38.5112574,-78.876307,Matching and updated,POINT (-78.876307 38.5112574)
2019,August,95,James City County,136,344,107660,52,2670,37.3244273,-76.7783194,Matching and updated,POINT (-76.7783194 37.3244273)
2021,February,143,Pittsylvania County,,,0,0,0,36.8217206,-79.3985019,Matching and updated,POINT (-79.3985019 36.8217206)
2019,November,660,Harrisonburg City,1960,6421,131120.86,243,879,38.4316694,-78.8760274,Matching and updated,POINT (-78.8760274 38.4316694)
2021,January,97,King and Queen County,0,0,0,,,37.7143698,-76.901863,Matching and updated,POINT (-76.901863 37.7143698)
2021,May,111,Lunenburg County,704,1548,130831,,,36.9457567,-78.242313,Matching and updated,POINT (-78.242313 36.9457567)
2019,September,630,Fredericksburg City,859,2089,61345,1614,2422,38.2992718,-77.4866583,Matching and updated,POINT (-77.4866583 38.2992718)
2020,March,183,Sussex County,160,435,8588,,,36.9266454,-77.2597319,Matching and updated,POINT (-77.2597319 36.9266454)
2021,April,135,Nottoway County,202,589,17805,,,37.1436955,-78.0521623,Matching and updated,POINT (-78.0521623 37.1436955)
2020,January,159,Richmond County,5,9,,,,37.9428935,-76.7305609,Matching and updated,POINT (-76.7305609 37.9428935)
2021,February,105,Lee County,295,804,11953.6,20,1053,36.7017206,-83.1301117,Matching and updated,POINT (-83.1301117 36.7017206)
2019,November,53,Dinwiddie County,305,1251,3657,,,37.0734984,-77.6354922,Matching and updated,POINT (-77.6354922 37.0734984)
2019,January,117,Mecklenburg County,700,16766,10876,,,36.6872563,-78.3689592,Matching and updated,POINT (-78.3689592 36.6872563)
2020,August,119,Middlesex County,489,816,8492,,,37.6069753,-76.5280819,Matching and updated,POINT (-76.5280819 37.6069753)
2021,May,139,PAGE COUNTY,341,715,34082.35,50,1102,38.6237508,-78.4904708,Matching and updated,POINT (-78.4904708 38.6237508)
2019,May,775,Salem City,827,2227,51030.83,,0,37.2853329,-80.0552407,Matching and updated,POINT (-80.0552407 37.2853329)
2020,August,147,Prince Edward County,1798,3148,44583,,,37.2248813,-78.4329574,Matching and updated,POINT (-78.4329574 37.2248813)
2019,January,1,Accomack County,1695,4941,85636,348,5966,37.7659435,-75.7578073,Matching and updated,POINT (-75.7578073 37.7659435)
2020,May,63,Floyd County,442,1028,10084.2,,0,36.9314381,-80.3503087,Matching and updated,POINT (-80.3503087 36.9314381)
2021,July,45,Craig County,231,236,6175,10,0,37.4731287,-80.231734,Matching and updated,POINT (-80.231734 37.4731287)
2019,April,73,Gloucester County,683,2173,88515,60,,37.4035413,-76.5235051,Matching and updated,POINT (-76.5235051 37.4035413)
2020,October,720,Norton City,669,2003,48905.01,,0,36.9315489,-82.625996,Matching and updated,POINT (-82.625996 36.9315489)
2020,May,131,Northampton County,510,748,21971,600,0,37.3026286,-75.9238683,Matching and updated,POINT (-75.9238683 37.3026286)
2021,February,117,Mecklenburg County,1436,2278,7705,,,36.6872563,-78.3689592,Matching and updated,POINT (-78.3689592 36.6872563)
2019,December,840,Winchester City,2532,7374,116568.4,2678,2741,39.1738688,-78.1763562,Matching and updated,POINT (-78.1763562 39.1738688)
2021,March,530,Buena Vista City,524,1020,59300.84,,0,37.7316634,-79.3563746,Matching and updated,POINT (-79.3563746 37.7316634)
2020,May,33,Caroline County,535,1388,18838.75,,0,38.0303193,-77.3523482,Matching and updated,POINT (-77.3523482 38.0303193)
2020,November,36,Charles City County,230,622,49230,,,37.3610537,-77.05417,Matching and updated,POINT (-77.05417 37.3610537)
2020,July,13,Arlington County,,,34742.05439,,,38.8783374,-77.1007034,Matching and updated,POINT (-77.1007034 38.8783374)
2021,March,167,Russell County,748,1931,49248.6,,0,36.9334198,-82.0959342,Matching and updated,POINT (-82.0959342 36.9334198)
2019,October,95,James City County,152,355,109393,245,3398,37.3244273,-76.7783194,Matching and updated,POINT (-76.7783194 37.3244273)
2020,September,87,Henrico County,2995,17163,58108,,,37.4375205,-77.300333,Matching and updated,POINT (-77.300333 37.4375205)
2020,September,770,Roanoke City,4068,18866,383339.91,115,4432,37.2778301,-79.9584716,Matching and updated,POINT (-79.9584716 37.2778301)
2019,April,155,Pulaski County,818,4287,16635,206,0,37.0633853,-80.7134439,Matching and updated,POINT (-80.7134439 37.0633853)
2020,May,139,PAGE COUNTY,346,481,56086.56,,0,38.6237508,-78.4904708,Matching and updated,POINT (-78.4904708 38.6237508)
2021,February,79,Greene County,571,1632,54289.76,,1923,38.2979805,-78.4701629,Matching and updated,POINT (-78.4701629 38.2979805)
2020,September,75,Goochland County,110,531,70660,,,37.7241655,-77.9142733,Matching and updated,POINT (-77.9142733 37.7241655)
2019,July,185,Tazewell County,2212,5114,92713,,69,37.1253949,-81.5629237,Matching and updated,POINT (-81.5629237 37.1253949)
2019,November,31,Campbell County,1338,3136,87804.3,,5370,37.210151,-79.0954285,Matching and updated,POINT (-79.0954285 37.210151)
2021,February,770,Roanoke City,3779,18707,367072.16,238,16315,37.2778301,-79.9584716,Matching and updated,POINT (-79.9584716 37.2778301)
2019,May,670,Hopewell City,0,834,0,,,37.2910098,-77.2989443,Matching and updated,POINT (-77.2989443 37.2910098)
2019,February,159,Richmond County,1,1,,,,37.9428935,-76.7305609,Matching and updated,POINT (-76.7305609 37.9428935)
2019,January,530,Buena Vista City,607,1007,26104.95,,0,37.7316634,-79.3563746,Matching and updated,POINT (-79.3563746 37.7316634)
2019,August,47,Culpeper County,21,52,,,,38.4859303,-77.9564758,Matching and updated,POINT (-77.9564758 38.4859303)
2021,July,775,Salem City,441,1093,16544.4,,0,37.2853329,-80.0552407,Matching and updated,POINT (-80.0552407 37.2853329)
2019,March,93,Isle of Wight County,1501,3332,45956,60,869,36.9014184,-76.7075688,Matching and updated,POINT (-76.7075688 36.9014184)
2020,October,5,Alleghany County,577,1708,63651.7,,0,37.7879048,-80.008669,Matching and updated,POINT (-80.008669 37.7879048)
2019,July,137,Orange County,283,684,14299,,0,38.2504394,-78.0099795,Matching and updated,POINT (-78.0099795 38.2504394)
2020,October,141,Patrick County,763,1836,26638.53,,0,36.6673274,-80.2861409,Matching and updated,POINT (-80.2861409 36.6673274)
2019,March,99,King George County,365,1013,25454,116,278,38.2771787,-77.1627015,Matching and updated,POINT (-77.1627015 38.2771787)
2020,August,570,Colonial Heights City,0,1550,0,,,37.2616846,-77.3968043,Matching and updated,POINT (-77.3968043 37.2616846)
2019,May,760,Richmond City,4,6,,,,37.531399,-77.4760085,Matching and updated,POINT (-77.4760085 37.531399)
2021,April,83,Halifax County,499,1129,13947,,,36.766461,-78.9396142,Matching and updated,POINT (-78.9396142 36.766461)
2019,October,157,Rappahannock County,2,4,,,,38.6845215,-78.1688241,Matching and updated,POINT (-78.1688241 38.6845215)
2019,August,37,Charlotte County,731,1572,0,,,37.0140909,-78.661424,Matching and updated,POINT (-78.661424 37.0140909)
2021,April,147,Prince Edward County,1195,2006,33397,,,37.2248813,-78.4329574,Matching and updated,POINT (-78.4329574 37.2248813)
2019,November,103,Lancaster County,470,954,67058,,,37.7038307,-76.4131985,Matching and updated,POINT (-76.4131985 37.7038307)
2021,February,197,Wythe County,670,1562,23419.98,,0,36.9014709,-81.084209,Matching and updated,POINT (-81.084209 36.9014709)
2020,March,193,Westmoreland County,264,656,7737,,,38.109238,-76.8040731,Matching and updated,POINT (-76.8040731 38.109238)
2019,February,810,Virginia Beach City,4755,18515,271992,220,2844,36.7793219,-76.0240202,Matching and updated,POINT (-76.0240202 36.7793219)
2019,September,540,Charlottesville City,132,6856,44252.31,973,0,38.0376579,-78.4853806,Matching and updated,POINT (-78.4853806 38.0376579)
2021,August,590,Danville City,2030,3603,154344.13,,3406,36.5833337,-79.4080707,Matching and updated,POINT (-79.4080707 36.5833337)
2020,July,113,Madison County,309,527,32398.77,,0,38.4120586,-78.2769613,Matching and updated,POINT (-78.2769613 38.4120586)
2020,July,840,Winchester City,2022,6303,215834.42,1175,2179,39.1738688,-78.1763562,Matching and updated,POINT (-78.1763562 39.1738688)
2021,March,57,Essex County,286,634,25424,,,37.9394802,-76.9418713,Matching and updated,POINT (-76.9418713 37.9394802)
2020,April,530,Buena Vista City,374,874,38967.77,,0,37.7316634,-79.3563746,Matching and updated,POINT (-79.3563746 37.7316634)
2019,January,550,Chesapeake City,4980,12505,200721,280,4877,36.6793761,-76.3017884,Matching and updated,POINT (-76.3017884 36.6793761)
2020,December,790,STAUNTON CITY,511,3384,28805.14,,429,38.1580558,-79.0615011,Matching and updated,POINT (-79.0615011 38.1580558)
2019,May,153,Prince William County,,,323447.9402,,,38.7011187,-77.4795791,Matching and updated,POINT (-77.4795791 38.7011187)
2020,March,65,Fluvanna County,344,940,35040.52,133,6856,37.8305761,-78.2844345,Matching and updated,POINT (-78.2844345 37.8305761)
2019,April,171,Shenandoah County,1482,3863,109753.97,,0,38.856204,-78.5739867,Matching and updated,POINT (-78.5739867 38.856204)
2019,September,155,Pulaski County,1046,2820,13255,57,0,37.0633853,-80.7134439,Matching and updated,POINT (-80.7134439 37.0633853)
2020,March,75,Goochland County,106,460,44269,,,37.7241655,-77.9142733,Matching and updated,POINT (-77.9142733 37.7241655)
2021,May,127,New Kent County,461,1288,0,,,37.5029094,-76.9828566,Matching and updated,POINT (-76.9828566 37.5029094)
2019,April,97,King and Queen County,128,290,255950,,,37.7143698,-76.901863,Matching and updated,POINT (-76.901863 37.7143698)
2020,July,3,Albemarle County,2066,4818,223548.99,,0,38.0241841,-78.5535056,Matching and updated,POINT (-78.5535056 38.0241841)
2020,June,820,Waynesboro City,129,536,22343.13,,314,38.0671571,-78.9014197,Matching and updated,POINT (-78.9014197 38.0671571)
2020,May,103,Lancaster County,478,906,77656,,,37.7038307,-76.4131985,Matching and updated,POINT (-76.4131985 37.7038307)
2019,April,540,Charlottesville City,1450,3069,45248.95,0,0,38.0376579,-78.4853806,Matching and updated,POINT (-78.4853806 38.0376579)
2020,December,19,Bedford County,1208,4029,93431,84,2114,37.3124079,-79.5279466,Matching and updated,POINT (-79.5279466 37.3124079)
2019,August,131,Northampton County,323,596,7610,0,0,37.3026286,-75.9238683,Matching and updated,POINT (-75.9238683 37.3026286)
2019,January,177,Spotsylvania County,2325,7358,154726,516,11634,38.1823112,-77.6562804,Matching and updated,POINT (-77.6562804 38.1823112)
2019,December,153,Prince William County,34,108,802,,0,38.7011187,-77.4795791,Matching and updated,POINT (-77.4795791 38.7011187)
2020,June,83,Halifax County,391,885,23120,,,36.766461,-78.9396142,Matching and updated,POINT (-78.9396142 36.766461)
2019,August,590,Danville City,3083,6417,141878.8,92,1438,36.5833337,-79.4080707,Matching and updated,POINT (-79.4080707 36.5833337)
2019,December,121,Montgomery County,1,1,,,,37.1748845,-80.387314,Matching and updated,POINT (-80.387314 37.1748845)
2019,January,41,Chesterfield County,6,6,,,,37.3784338,-77.5858474,Matching and updated,POINT (-77.5858474 37.3784338)
2020,December,137,Orange County,372,877,43956.92,,0,38.2504394,-78.0099795,Matching and updated,POINT (-78.0099795 38.2504394)
2019,February,133,Northumberland County,279,659,75079,,,37.8569736,-76.3796872,Matching and updated,POINT (-76.3796872 37.8569736)
2019,June,760,Richmond City,6,12,,,,37.531399,-77.4760085,Matching and updated,POINT (-77.4760085 37.531399)
2019,July,45,Craig County,58,74,7380,,0,37.4731287,-80.231734,Matching and updated,POINT (-80.231734 37.4731287)
2020,January,109,Louisa County,22,73,,,,37.9716808,-77.9591779,Matching and updated,POINT (-77.9591779 37.9716808)
2021,May,63,Floyd County,240,591,10422.08,,0,36.9314381,-80.3503087,Matching and updated,POINT (-80.3503087 36.9314381)
2019,January,29,Buckingham County,706,1487,33851.25,,0,37.573928,-78.5291687,Matching and updated,POINT (-78.5291687 37.573928)
2019,September,660,Harrisonburg City,2495,8211,151715.29,156,0,38.4316694,-78.8760274,Matching and updated,POINT (-78.8760274 38.4316694)
2019,January,760,Richmond City,5939,12289,19721,,,37.531399,-77.4760085,Matching and updated,POINT (-77.4760085 37.531399)
2020,June,19,BEDFORD COUNTY,237,546,14717.48,0,0,37.3124079,-79.5279466,Matching and updated,POINT (-79.5279466 37.3124079)
2019,May,620,Franklin City,883,2143,27887,80,1178,36.6840142,-76.9413956,Matching and updated,POINT (-76.9413956 36.6840142)
2021,April,75,Goochland County,121,466,104927,,,37.7241655,-77.9142733,Matching and updated,POINT (-77.9142733 37.7241655)
2020,June,640,Galax City,349,832,5748,,0,36.6656397,-80.9143083,Matching and updated,POINT (-80.9143083 36.6656397)
2019,June,33,Caroline County,811,2068,29825,112,172,38.0303193,-77.3523482,Matching and updated,POINT (-77.3523482 38.0303193)
2019,October,63,Floyd County,387,988,13131.45,,0,36.9314381,-80.3503087,Matching and updated,POINT (-80.3503087 36.9314381)
2020,March,550,Chesapeake City,2041,6829,125680,268,1133,36.6793761,-76.3017884,Matching and updated,POINT (-76.3017884 36.6793761)
2019,October,115,Mathews County,,,26741,0,,37.4253479,-76.2688078,Non-matching,POINT (-76.2688078 37.4253479)
2020,March,141,Patrick County,875,1728,21672.45,,0,36.6673274,-80.2861409,Matching and updated,POINT (-80.2861409 36.6673274)
2020,February,760,Richmond City,7936,15857,20666,,,37.531399,-77.4760085,Matching and updated,POINT (-77.4760085 37.531399)
2019,June,79,Greene County,363,881,29656.44,,0,38.2979805,-78.4701629,Matching and updated,POINT (-78.4701629 38.2979805)
2019,September,1,Accomack County,1871,5542,136546,0,0,37.7659435,-75.7578073,Matching and updated,POINT (-75.7578073 37.7659435)
2019,June,31,Campbell County,878,2248,83619.47,0,1048,37.210151,-79.0954285,Matching and updated,POINT (-79.0954285 37.210151)
2020,January,69,Frederick County,2647,6567,56539.03,,0,39.203637,-78.2639164,Matching and updated,POINT (-78.2639164 39.203637)
2020,December,520,Bristol City,255,1362,13870,97,0,36.6169541,-82.1575641,Matching and updated,POINT (-82.1575641 36.6169541)
2020,December,23,Botetourt County,233,842,17232.71,15,211,37.553193,-79.8053176,Matching and updated,POINT (-79.8053176 37.553193)
2019,April,93,Isle of Wight County,1422,3102,54910,60,893,36.9014184,-76.7075688,Matching and updated,POINT (-76.7075688 36.9014184)
2019,October,159,Richmond County,12,44,2133902,,,37.9428935,-76.7305609,Matching and updated,POINT (-76.7305609 37.9428935)
2019,June,153,Prince William County,,,272774.1979,,,38.7011187,-77.4795791,Matching and updated,POINT (-77.4795791 38.7011187)
2020,February,63,Floyd County,394,1182,22847.5,,0,36.9314381,-80.3503087,Matching and updated,POINT (-80.3503087 36.9314381)
2021,June,85,Hanover County,793,2198,330,,,37.7601655,-77.4909916,Matching and updated,POINT (-77.4909916 37.7601655)
2019,January,650,Hampton City,1508,4061,256698,410,12582,37.0480303,-76.2971486,Matching and updated,POINT (-76.2971486 37.0480303)
2020,March,19,BEDFORD COUNTY,471,937,21253.61,,0,37.3124079,-79.5279466,Matching and updated,POINT (-79.5279466 37.3124079)
2020,March,119,Middlesex County,667,1005,13096,,,37.6069753,-76.5280819,Matching and updated,POINT (-76.5280819 37.6069753)
2021,May,43,CLARKE COUNTY,109,254,5856.22,62,842,39.1159309,-77.9920039,Matching and updated,POINT (-77.9920039 39.1159309)
2020,October,111,Lunenburg County,809,2294,137312,,,36.9457567,-78.242313,Matching and updated,POINT (-78.242313 36.9457567)
2021,April,185,Tazewell County,1242,2834,69636.68,,0,37.1253949,-81.5629237,Matching and updated,POINT (-81.5629237 37.1253949)
2019,February,127,New Kent County,5,2803,0,,,37.5029094,-76.9828566,Matching and updated,POINT (-76.9828566 37.5029094)
2020,July,520,Bristol City,264,1328,28538,,0,36.6169541,-82.1575641,Matching and updated,POINT (-82.1575641 36.6169541)
2019,May,3,Albemarle County,2417,6457,156918.64,111,2242,38.0241841,-78.5535056,Matching and updated,POINT (-78.5535056 38.0241841)
2019,September,127,New Kent County,380,1302,0,,,37.5029094,-76.9828566,Matching and updated,POINT (-76.9828566 37.5029094)
2020,July,141,Patrick County,1055,2183,40391.15,,0,36.6673274,-80.2861409,Matching and updated,POINT (-80.2861409 36.6673274)
2021,February,680,Lynchburg City,11149,15773,154530.62,55,21443,37.3990161,-79.1954582,Matching and updated,POINT (-79.1954582 37.3990161)
2019,December,97,King and Queen,,,48914,,,37.7143698,-76.901863,Non-matching,POINT (-76.901863 37.7143698)
2019,June,7,Amelia County,152,434,8531,,,37.3319271,-77.9774619,Matching and updated,POINT (-77.9774619 37.3319271)
2021,February,139,PAGE COUNTY,455,830,44829.33,0,0,38.6237508,-78.4904708,Matching and updated,POINT (-78.4904708 38.6237508)
2019,March,750,Radford City,854,1885,33531.75,315,0,37.120036,-80.5570481,Matching and updated,POINT (-80.5570481 37.120036)
2021,April,191,Washington County,1143,4290,79711.25,125,0,36.7478314,-81.9503155,Matching and updated,POINT (-81.9503155 36.7478314)
2020,June,85,Hanover County,763,2150,585,,,37.7601655,-77.4909916,Matching and updated,POINT (-77.4909916 37.7601655)
2020,July,81,Greensville County,47,208,106696,,,36.6802247,-77.5602607,Matching and updated,POINT (-77.5602607 36.6802247)
2020,March,79,Greene County,637,1712,57880.02,78,1997,38.2979805,-78.4701629,Matching and updated,POINT (-78.4701629 38.2979805)
2020,November,15,Augusta County,2843,6897,274193.63,79,634,38.1678073,-79.1466816,Matching and updated,POINT (-79.1466816 38.1678073)
2019,March,710,Norfolk City,10047,33700,424450.625,1176,17320,36.9230149,-76.2446413,Matching and updated,POINT (-76.2446413 36.9230149)
2020,February,95,James City County,234,692,92638,245,1576,37.3244273,-76.7783194,Matching and updated,POINT (-76.7783194 37.3244273)
2019,February,191,Washington County,1561,4700,51485.05,117,2380,36.7478314,-81.9503155,Matching and updated,POINT (-81.9503155 36.7478314)
2019,July,690,Martinsville City,437,2061,12727.8,,0,36.6835269,-79.8636475,Matching and updated,POINT (-79.8636475 36.6835269)
2019,December,167,Russell County,1174,2252,28187.3,,0,36.9334198,-82.0959342,Matching and updated,POINT (-82.0959342 36.9334198)
2020,April,7,Amelia County,167,415,6549,,,37.3319271,-77.9774619,Matching and updated,POINT (-77.9774619 37.3319271)
2019,May,660,Harrisonburg City,2438,8016,149768.99,91,52,38.4316694,-78.8760274,Matching and updated,POINT (-78.8760274 38.4316694)
2020,September,47,Culpeper County,862,2403,68472.8,,0,38.4859303,-77.9564758,Matching and updated,POINT (-77.9564758 38.4859303)
2019,September,91,Highland County,163,312,9734.15,,0,38.3566717,-79.5679583,Matching and updated,POINT (-79.5679583 38.3566717)
2019,April,85,Hanover County,115,331,,,,37.7601655,-77.4909916,Matching and updated,POINT (-77.4909916 37.7601655)
2019,November,135,Nottoway County,246,941,39025,,,37.1436955,-78.0521623,Matching and updated,POINT (-78.0521623 37.1436955)
2019,September,97,King and Queen County,77,231,291747,,,37.7143698,-76.901863,Matching and updated,POINT (-76.901863 37.7143698)
2020,September,167,Russell County,855,1997,54478.35,,0,36.9334198,-82.0959342,Matching and updated,POINT (-82.0959342 36.9334198)
2020,January,21,Bland County,466,1268,26657.78,,0,37.1306124,-81.1258532,Matching and updated,POINT (-81.1258532 37.1306124)
2019,April,111,Lunenburg County,321,2912,82630,,,36.9457567,-78.242313,Matching and updated,POINT (-78.242313 36.9457567)
2020,July,79,Greene County,624,1771,76376.83,,0,38.2979805,-78.4701629,Matching and updated,POINT (-78.4701629 38.2979805)
2019,August,730,Petersburg City,0,6579,0,,,37.2047302,-77.3923681,Matching and updated,POINT (-77.3923681 37.2047302)
2019,June,141,Patrick County,876,2112,15699.6,,0,36.6673274,-80.2861409,Matching and updated,POINT (-80.2861409 36.6673274)
2020,April,157,Rappahannock County,341,815,30806.61,,0,38.6845215,-78.1688241,Matching and updated,POINT (-78.1688241 38.6845215)
2019,October,143,Pittsylvania County,599,1555,26748.55,,0,36.8217206,-79.3985019,Matching and updated,POINT (-79.3985019 36.8217206)
2019,November,690,Martinsville City,496,2081,18023.9,111,28,36.6835269,-79.8636475,Matching and updated,POINT (-79.8636475 36.6835269)
2019,December,65,Fluvanna County,261,560,14542.82,133,1773,37.8305761,-78.2844345,Matching and updated,POINT (-78.2844345 37.8305761)
2021,June,36,Charles City County,136,366,30600,,,37.3610537,-77.05417,Matching and updated,POINT (-77.05417 37.3610537)
2019,July,41,Chesterfield County,854,5463,246043,,,37.3784338,-77.5858474,Matching and updated,POINT (-77.5858474 37.3784338)
2021,June,135,Nottoway County,207,612,14469,,,37.1436955,-78.0521623,Matching and updated,POINT (-78.0521623 37.1436955)
2019,January,185,Tazewell County,2084,4264,93377.75,40,186,37.1253949,-81.5629237,Matching and updated,POINT (-81.5629237 37.1253949)
2019,February,117,Mecklenburg County,532,19056,15407,,,36.6872563,-78.3689592,Matching and updated,POINT (-78.3689592 36.6872563)
2019,March,720,Norton City,634,2024,20181,,0,36.9315489,-82.625996,Matching and updated,POINT (-82.625996 36.9315489)
2019,May,79,Greene County,395,967,41794.32,76,135,38.2979805,-78.4701629,Matching and updated,POINT (-78.4701629 38.2979805)
2020,February,810,Virginia Beach City,5002,19261,267806,220,4133,36.7793219,-76.0240202,Matching and updated,POINT (-76.0240202 36.7793219)
2019,February,187,Warren County,972,2525,33891.09,44,0,38.9081874,-78.2071314,Matching and updated,POINT (-78.2071314 38.9081874)
2020,April,800,Suffolk City,1038,1896,118358,0,0,36.6971573,-76.6347808,Matching and updated,POINT (-76.6347808 36.6971573)
2019,September,179,Stafford County,1325,4081,59582,936,1639,38.4153856,-77.4548719,Matching and updated,POINT (-77.4548719 38.4153856)
2020,February,61,Fauquier County,4,16,,,,38.7441032,-77.8215847,Matching and updated,POINT (-77.8215847 38.7441032)
2020,June,790,STAUNTON CITY,293,3039,24368.74,,229,38.1580558,-79.0615011,Matching and updated,POINT (-79.0615011 38.1580558)
2019,April,61,Fauquier County,1,5,,,,38.7441032,-77.8215847,Matching and updated,POINT (-77.8215847 38.7441032)
2020,February,820,Waynesboro City,231,635,21090.44,407,7692,38.0671571,-78.9014197,Matching and updated,POINT (-78.9014197 38.0671571)
2021,March,53,Dinwiddie County,396,964,5234,,,37.0734984,-77.6354922,Matching and updated,POINT (-77.6354922 37.0734984)
2020,April,61,Fauquier County,887,2055,43323.82,,0,38.7441032,-77.8215847,Matching and updated,POINT (-77.8215847 38.7441032)
2019,August,89,Henry County,3716,6548,79182.45,154,813,36.6206074,-79.9806728,Matching and updated,POINT (-79.9806728 36.6206074)
2019,June,147,Prince Edward County,1539,2852,37870,,,37.2248813,-78.4329574,Matching and updated,POINT (-78.4329574 37.2248813)
2019,August,133,Northumberland County,263,678,64446,,,37.8569736,-76.3796872,Matching and updated,POINT (-76.3796872 37.8569736)
2019,July,640,Galax City,677,1518,13144.2,,0,36.6656397,-80.9143083,Matching and updated,POINT (-80.9143083 36.6656397)
2019,November,595,Emporia City,99,134,11319,,,36.696182,-77.5359753,Matching and updated,POINT (-77.5359753 36.696182)
2021,February,169,Scott County,417,853,35248.18,12,902,36.7127783,-82.6136268,Matching and updated,POINT (-82.6136268 36.7127783)
2019,December,113,Madison County,277,647,31242.28,,0,38.4120586,-78.2769613,Matching and updated,POINT (-78.2769613 38.4120586)
2020,July,43,CLARKE COUNTY,225,349,8194.6,82,992,39.1159309,-77.9920039,Matching and updated,POINT (-77.9920039 39.1159309)
2019,March,79,Greene County,314,793,35786.97,77,1308,38.2979805,-78.4701629,Matching and updated,POINT (-78.4701629 38.2979805)
2020,January,199,York County,1,1,,,,37.2209139,-76.395533,Matching and updated,POINT (-76.395533 37.2209139)
2020,April,149,Prince George County,2,2,,,,37.1873255,-77.2209931,Matching and updated,POINT (-77.2209931 37.1873255)
2020,April,185,Tazewell County,1775,4376,41181.5,40,0,37.1253949,-81.5629237,Matching and updated,POINT (-81.5629237 37.1253949)
2020,July,720,Norton City,443,1450,11040.13,,0,36.9315489,-82.625996,Matching and updated,POINT (-82.625996 36.9315489)
2019,December,740,Portsmouth City,2027,6609,111428,560,8690,36.8594298,-76.3562686,Matching and updated,POINT (-76.3562686 36.8594298)
2020,August,680,Lynchburg City,10542,19180,203979.07,1330,10210,37.3990161,-79.1954582,Matching and updated,POINT (-79.1954582 37.3990161)
2019,April,570,Colonial Heights City,4,4,51450,,,37.2616846,-77.3968043,Matching and updated,POINT (-77.3968043 37.2616846)
2019,October,550,Chesapeake City,3752,9970,230149,285,4754,36.6793761,-76.3017884,Matching and updated,POINT (-76.3017884 36.6793761)
2021,January,720,Norton City,406,1103,46796.83,,0,36.9315489,-82.625996,Matching and updated,POINT (-82.625996 36.9315489)
2020,June,131,Northampton County,372,562,22250,0,0,37.3026286,-75.9238683,Matching and updated,POINT (-75.9238683 37.3026286)
2019,June,143,Pittsylvania County,,,0,0,0,36.8217206,-79.3985019,Matching and updated,POINT (-79.3985019 36.8217206)
2021,January,75,Goochland County,125,472,66054,,,37.7241655,-77.9142733,Matching and updated,POINT (-77.9142733 37.7241655)
2021,March,19,BEDFORD COUNTY,494,964,31332.78,29,0,37.3124079,-79.5279466,Matching and updated,POINT (-79.5279466 37.3124079)
2021,May,760,Richmond City,0,6115,0,,,37.531399,-77.4760085,Matching and updated,POINT (-77.4760085 37.531399)
2020,March,57,Essex County,263,594,29273,,,37.9394802,-76.9418713,Matching and updated,POINT (-76.9418713 37.9394802)
2020,January,27,Buchanan County,1485,2899,101756.3,481,0,37.2681198,-82.0381508,Matching and updated,POINT (-82.0381508 37.2681198)
2020,August,11,Appomattox County,1080,1861,30923.21,,0,37.3707253,-78.8109404,Matching and updated,POINT (-78.8109404 37.3707253)
2019,August,1,Accomack County,1831,5477,77457,0,0,37.7659435,-75.7578073,Matching and updated,POINT (-75.7578073 37.7659435)
2020,August,640,Galax City,321,816,8789,,0,36.6656397,-80.9143083,Matching and updated,POINT (-80.9143083 36.6656397)
2020,December,530,Buena Vista City,527,1366,54983.61,,0,37.7316634,-79.3563746,Matching and updated,POINT (-79.3563746 37.7316634)
2019,September,167,Russell County,2,8,,,,36.9334198,-82.0959342,Matching and updated,POINT (-82.0959342 36.9334198)
2021,June,117,Mecklenburg County,1487,2344,7677,,,36.6872563,-78.3689592,Matching and updated,POINT (-78.3689592 36.6872563)
2020,January,185,Tazewell County,2120,4832,69307.73,40,0,37.1253949,-81.5629237,Matching and updated,POINT (-81.5629237 37.1253949)
2019,May,103,Lancaster County,422,820,84660,,,37.7038307,-76.4131985,Matching and updated,POINT (-76.4131985 37.7038307)
2021,March,143,Pittsylvania County,453,1181,25768.2,,0,36.8217206,-79.3985019,Matching and updated,POINT (-79.3985019 36.8217206)
2020,June,157,Rappahannock County,252,558,21780.32,,0,38.6845215,-78.1688241,Matching and updated,POINT (-78.1688241 38.6845215)
2020,March,97,King and Queen,,,63261,,,37.7143698,-76.901863,Non-matching,POINT (-76.901863 37.7143698)
2019,July,137,Orange County,443,1307,42258.2,,0,38.2504394,-78.0099795,Matching and updated,POINT (-78.0099795 38.2504394)
2021,May,820,Waynesboro City,157,348,13278.28,0,2203,38.0671571,-78.9014197,Matching and updated,POINT (-78.9014197 38.0671571)
2019,March,7,Amelia County,160,507,9126,,,37.3319271,-77.9774619,Matching and updated,POINT (-77.9774619 37.3319271)
2021,January,195,Wise County,601,1629,36031.49,,0,36.9745607,-82.6215601,Matching and updated,POINT (-82.6215601 36.9745607)
2020,May,115,Mathews County,,,23275,0,,37.4253479,-76.2688078,Non-matching,POINT (-76.2688078 37.4253479)
2020,January,159,Richmond County,29,69,421965,,,37.9428935,-76.7305609,Matching and updated,POINT (-76.7305609 37.9428935)
2020,October,63,Floyd County,257,519,18573.51,,0,36.9314381,-80.3503087,Matching and updated,POINT (-80.3503087 36.9314381)
2019,June,41,Chesterfield County,3,3,,,,37.3784338,-77.5858474,Matching and updated,POINT (-77.5858474 37.3784338)
2021,March,87,Henrico County,3091,11075,103159,,,37.4375205,-77.300333,Matching and updated,POINT (-77.300333 37.4375205)
2021,March,520,Bristol City,178,1404,8980,77,2043,36.6169541,-82.1575641,Matching and updated,POINT (-82.1575641 36.6169541)
2019,February,157,Rappahannock County,225,682,20010.41,,0,38.6845215,-78.1688241,Matching and updated,POINT (-78.1688241 38.6845215)
2019,August,93,Isle of Wight County,1389,3130,49091,0,0,36.9014184,-76.7075688,Matching and updated,POINT (-76.7075688 36.9014184)
2021,April,157,Rappahannock County,173,387,15562.94,,0,38.6845215,-78.1688241,Matching and updated,POINT (-78.1688241 38.6845215)
2019,December,57,Essex County,55,136,,,,37.9394802,-76.9418713,Matching and updated,POINT (-76.9418713 37.9394802)
2019,September,730,Petersburg City,0,8018,0,,,37.2047302,-77.3923681,Matching and updated,POINT (-77.3923681 37.2047302)
2019,May,650,Hampton City,1545,3925,274300,410,12745,37.0480303,-76.2971486,Matching and updated,POINT (-76.2971486 37.0480303)
2020,October,121,Montgomery County,1535,7872,58740.68,484,10990,37.1748845,-80.387314,Matching and updated,POINT (-80.387314 37.1748845)
2020,December,720,Norton City,837,2486,31506.14,,0,36.9315489,-82.625996,Matching and updated,POINT (-82.625996 36.9315489)
2020,August,183,Sussex County,133,361,9336,,,36.9266454,-77.2597319,Matching and updated,POINT (-77.2597319 36.9266454)
2020,October,87,Henrico County,3118,17371,81731,,,37.4375205,-77.300333,Matching and updated,POINT (-77.300333 37.4375205)
2019,April,595,Emporia City,0,0,0,,,36.696182,-77.5359753,Matching and updated,POINT (-77.5359753 36.696182)
2020,September,11,Appomattox County,1236,2080,24937.88,,0,37.3707253,-78.8109404,Matching and updated,POINT (-78.8109404 37.3707253)
2020,November,29,Buckingham County,762,1425,33224.49,,0,37.573928,-78.5291687,Matching and updated,POINT (-78.5291687 37.573928)
2020,January,29,Buckingham County,904,1713,39707,,0,37.573928,-78.5291687,Matching and updated,POINT (-78.5291687 37.573928)
2020,October,119,Middlesex County,638,983,12508,,,37.6069753,-76.5280819,Matching and updated,POINT (-76.5280819 37.6069753)
2020,August,760,Richmond City,0,10946,0,,,37.531399,-77.4760085,Matching and updated,POINT (-77.4760085 37.531399)
2019,September,11,Appomattox County,1435,2046,25941.16,,0,37.3707253,-78.8109404,Matching and updated,POINT (-78.8109404 37.3707253)
2020,December,101,King William County,493,5510,8968,,,37.7082604,-77.0910539,Matching and updated,POINT (-77.0910539 37.7082604)
2020,October,195,Wise County,1288,2918,45059.49,,0,36.9745607,-82.6215601,Matching and updated,POINT (-82.6215601 36.9745607)
2020,August,45,Craig County,61,65,8199,6,131,37.4731287,-80.231734,Matching and updated,POINT (-80.231734 37.4731287)
2021,June,67,Franklin County,531,1714,18722.26,,0,36.9923498,-79.8839586,Matching and updated,POINT (-79.8839586 36.9923498)
2019,February,620,Franklin City,988,2350,24196,60,809,36.6840142,-76.9413956,Matching and updated,POINT (-76.9413956 36.6840142)
2021,June,678,Lexington City,619,4165,51353.05,,0,37.7823316,-79.4443196,Matching and updated,POINT (-79.4443196 37.7823316)
2019,December,119,Middlesex County,598,940,7502,,,37.6069753,-76.5280819,Matching and updated,POINT (-76.5280819 37.6069753)
2019,August,19,BEDFORD COUNTY,492,1426,25988.39,,0,37.3124079,-79.5279466,Matching and updated,POINT (-79.5279466 37.3124079)
2020,June,59,Fairfax County,5,22,,,,38.8337425,-77.2761174,Matching and updated,POINT (-77.2761174 38.8337425)
2020,May,127,New Kent County,453,1261,0,,,37.5029094,-76.9828566,Matching and updated,POINT (-76.9828566 37.5029094)
2019,April,1,Accomack County,1796,5250,124917,349,6739,37.7659435,-75.7578073,Matching and updated,POINT (-75.7578073 37.7659435)
2021,February,47,Culpeper County,662,1830,45368.49,,0,38.4859303,-77.9564758,Matching and updated,POINT (-77.9564758 38.4859303)
2020,March,145,Powhatan County,141,355,90881,,,37.5494041,-77.9128553,Matching and updated,POINT (-77.9128553 37.5494041)
2020,April,141,Patrick County,968,1821,23847.2,,0,36.6673274,-80.2861409,Matching and updated,POINT (-80.2861409 36.6673274)
2020,October,71,Giles County,222,339,16865,,0,37.3119298,-80.7171778,Matching and updated,POINT (-80.7171778 37.3119298)
2020,January,153,Prince William County,,,536952.05,,16317,38.7011187,-77.4795791,Matching and updated,POINT (-77.4795791 38.7011187)
2020,August,63,Floyd County,333,819,22342.2,,0,36.9314381,-80.3503087,Matching and updated,POINT (-80.3503087 36.9314381)
2019,July,75,Goochland County,41,809,49632,,,37.7241655,-77.9142733,Matching and updated,POINT (-77.9142733 37.7241655)
2020,June,740,Portsmouth City,2922,4765,64385,815,6399,36.8594298,-76.3562686,Matching and updated,POINT (-76.3562686 36.8594298)
2020,April,65,Fluvanna County,415,1263,29936.58,133,2735,37.8305761,-78.2844345,Matching and updated,POINT (-78.2844345 37.8305761)
2020,May,143,Pittsylvania County,487,1269,20443.35,,0,36.8217206,-79.3985019,Matching and updated,POINT (-79.3985019 36.8217206)
2019,November,640,Galax City,0,0,1500,246,0,36.6656397,-80.9143083,Matching and updated,POINT (-80.9143083 36.6656397)
2020,December,43,CLARKE COUNTY,122,263,3251.53,0,599,39.1159309,-77.9920039,Matching and updated,POINT (-77.9920039 39.1159309)
2021,February,135,Nottoway County,173,575,16883,,,37.1436955,-78.0521623,Matching and updated,POINT (-78.0521623 37.1436955)
2019,May,630,Fredericksburg City,735,1648,54859,581,2823,38.2992718,-77.4866583,Matching and updated,POINT (-77.4866583 38.2992718)
2019,November,47,Culpeper County,23,56,,,,38.4859303,-77.9564758,Matching and updated,POINT (-77.9564758 38.4859303)
2019,June,19,Bedford County,1135,3526,69021.5,,0,37.3124079,-79.5279466,Matching and updated,POINT (-79.5279466 37.3124079)
2020,October,105,Lee County,446,1071,30967.08,,0,36.7017206,-83.1301117,Matching and updated,POINT (-83.1301117 36.7017206)
2020,April,53,Dinwiddie County,286,795,4187,,,37.0734984,-77.6354922,Matching and updated,POINT (-77.6354922 37.0734984)
2019,July,530,Buena Vista City,1047,1890,20915.63,,0,37.7316634,-79.3563746,Matching and updated,POINT (-79.3563746 37.7316634)
2020,August,19,BEDFORD COUNTY,346,732,24691.98,0,0,37.3124079,-79.5279466,Matching and updated,POINT (-79.5279466 37.3124079)
2020,May,23,Botetourt County,298,1130,11721.9,,0,37.553193,-79.8053176,Matching and updated,POINT (-79.8053176 37.553193)
2019,February,61,Fauquier County,882,2128,58462.22,,0,38.7441032,-77.8215847,Matching and updated,POINT (-77.8215847 38.7441032)
2019,August,630,Fredericksburg City,832,1913,52572,765,1667,38.2992718,-77.4866583,Matching and updated,POINT (-77.4866583 38.2992718)
2019,March,119,Middlesex County,596,919,13685,,,37.6069753,-76.5280819,Matching and updated,POINT (-76.5280819 37.6069753)
2019,December,23,Botetourt County,231,745,11561.45,,0,37.553193,-79.8053176,Matching and updated,POINT (-79.8053176 37.553193)
2021,July,89,Henry County,2949,7013,100410.4,,8985,36.6206074,-79.9806728,Matching and updated,POINT (-79.9806728 36.6206074)
2021,January,51,Dickenson County,656,1203,35592.53,,0,37.137081,-82.3492083,Matching and updated,POINT (-82.3492083 37.137081)
2019,February,97,King and Queen County,0,1340,0,,,37.7143698,-76.901863,Matching and updated,POINT (-76.901863 37.7143698)
2020,February,77,Grayson County,636,1858,28203.41,,0,36.6563026,-81.2253365,Matching and updated,POINT (-81.2253365 36.6563026)
2021,April,37,Charlotte County,712,1193,25972,,,37.0140909,-78.661424,Matching and updated,POINT (-78.661424 37.0140909)
2021,May,21,Bland County,180,438,52002.4,,0,37.1306124,-81.1258532,Matching and updated,POINT (-81.1258532 37.1306124)
2019,July,595,Emporia City,0,0,0,,,36.696182,-77.5359753,Matching and updated,POINT (-77.5359753 36.696182)
2020,October,510,Alexandria City,,,262883.5181,,12230,38.8183429,-77.0820263,Matching and updated,POINT (-77.0820263 38.8183429)
2021,April,670,Hopewell City,0,727,0,,,37.2910098,-77.2989443,Matching and updated,POINT (-77.2989443 37.2910098)
2020,April,43,CLARKE COUNTY,133,231,6600,82,1993,39.1159309,-77.9920039,Matching and updated,POINT (-77.9920039 39.1159309)
2020,April,131,Northampton County,294,685,22577,213,1383,37.3026286,-75.9238683,Matching and updated,POINT (-75.9238683 37.3026286)
2021,June,171,Shenandoah County,872,2020,79073.04,,0,38.856204,-78.5739867,Matching and updated,POINT (-78.5739867 38.856204)
2021,January,167,Russell County,778,1751,34939.23,,0,36.9334198,-82.0959342,Matching and updated,POINT (-82.0959342 36.9334198)
2019,December,71,Giles County,225,399,13487,73,0,37.3119298,-80.7171778,Matching and updated,POINT (-80.7171778 37.3119298)
2021,February,59,Fairfax County,,,1617217.836,,74363,38.8337425,-77.2761174,Matching and updated,POINT (-77.2761174 38.8337425)
2020,April,97,King and Queen County,28,30,,,,37.7143698,-76.901863,Matching and updated,POINT (-76.901863 37.7143698)
2019,April,13,Arlington County,,,44742.87158,,646,38.8783374,-77.1007034,Matching and updated,POINT (-77.1007034 38.8783374)
2021,February,85,Hanover County,854,2358,199,,,37.7601655,-77.4909916,Matching and updated,POINT (-77.4909916 37.7601655)
2019,November,91,Highland County,206,384,10963.29,,0,38.3566717,-79.5679583,Matching and updated,POINT (-79.5679583 38.3566717)
2020,December,107,Loudoun County,5253,14709,204533.58,900,11494,39.0811303,-77.6388572,Matching and updated,POINT (-77.6388572 39.0811303)
2019,October,11,Appomattox County,909,1258,32786.82,,0,37.3707253,-78.8109404,Matching and updated,POINT (-78.8109404 37.3707253)
2020,May,47,Culpeper County,20,47,,,,38.4859303,-77.9564758,Matching and updated,POINT (-77.9564758 38.4859303)
2019,November,157,Rappahannock County,455,1146,22705.05,,0,38.6845215,-78.1688241,Matching and updated,POINT (-78.1688241 38.6845215)
2019,August,165,Rockingham County,1688,3205,90367.32,,0,38.5112574,-78.876307,Matching and updated,POINT (-78.876307 38.5112574)
2019,August,59,Fairfax County,,,489576.4181,,383,38.8337425,-77.2761174,Matching and updated,POINT (-77.2761174 38.8337425)
2019,February,193,Westmoreland County,385,1253,6432,,,38.109238,-76.8040731,Matching and updated,POINT (-76.8040731 38.109238)
2020,September,137,Orange County,531,1259,24983.92,,0,38.2504394,-78.0099795,Matching and updated,POINT (-78.0099795 38.2504394)
2019,March,820,Waynesboro City,634,1054,15329.19,134,7348,38.0671571,-78.9014197,Matching and updated,POINT (-78.9014197 38.0671571)
2021,March,147,Prince Edward County,1374,2372,65439,,,37.2248813,-78.4329574,Matching and updated,POINT (-78.4329574 37.2248813)
2019,July,173,Smyth County,1346,4306,112120.2,30,13446,36.8423183,-81.5397861,Matching and updated,POINT (-81.5397861 36.8423183)
2019,April,181,Surry County,62,122,15965,0,,37.1197611,-76.8801717,Matching and updated,POINT (-76.8801717 37.1197611)
2021,May,7,Amelia County,161,439,8908,,,37.3319271,-77.9774619,Matching and updated,POINT (-77.9774619 37.3319271)
2021,May,3,Albemarle County,1804,4528,165983.3,55,0,38.0241841,-78.5535056,Matching and updated,POINT (-78.5535056 38.0241841)
2020,January,35,Carroll County,366,934,10325.85,,0,36.7324256,-80.728043,Matching and updated,POINT (-80.728043 36.7324256)
2021,May,69,Frederick County,223,1136,34392.65,,0,39.203637,-78.2639164,Matching and updated,POINT (-78.2639164 39.203637)
2019,November,127,New Kent County,463,1228,0,,,37.5029094,-76.9828566,Matching and updated,POINT (-76.9828566 37.5029094)
2021,June,760,Richmond City,0,7974,0,,,37.531399,-77.4760085,Matching and updated,POINT (-77.4760085 37.531399)
2021,May,113,Madison County,173,406,36409.69,,0,38.4120586,-78.2769613,Matching and updated,POINT (-78.2769613 38.4120586)
2020,February,141,Patrick County,1104,2770,18090,,0,36.6673274,-80.2861409,Matching and updated,POINT (-80.2861409 36.6673274)
2020,September,530,Buena Vista City,241,620,27485.1,,0,37.7316634,-79.3563746,Matching and updated,POINT (-79.3563746 37.7316634)
2020,April,97,King and Queen,,,59263,,,37.7143698,-76.901863,Non-matching,POINT (-76.901863 37.7143698)
2020,January,109,Louisa County,1443,2972,24210,,,37.9716808,-77.9591779,Matching and updated,POINT (-77.9591779 37.9716808)
2021,April,97,King and Queen County,0,0,0,,,37.7143698,-76.901863,Matching and updated,POINT (-76.901863 37.7143698)
2019,March,117,Mecklenburg County,823,22093,18142,,,36.6872563,-78.3689592,Matching and updated,POINT (-78.3689592 36.6872563)
2020,March,149,Prince George County,219,532,11120,,,37.1873255,-77.2209931,Matching and updated,POINT (-77.2209931 37.1873255)
2019,April,27,Buchanan County,1566,3194,75176.23,279,0,37.2681198,-82.0381508,Matching and updated,POINT (-82.0381508 37.2681198)
2020,March,25,Brunswick County,499,806,12090,,,36.7645309,-77.8609162,Matching and updated,POINT (-77.8609162 36.7645309)
2020,September,595,Emporia City,64,100,25419,,,36.696182,-77.5359753,Matching and updated,POINT (-77.5359753 36.696182)
2019,September,13,Arlington County,,,31881.74456,,2255,38.8783374,-77.1007034,Matching and updated,POINT (-77.1007034 38.8783374)
2019,December,125,Nelson County,602,1189,46143.61,,0,37.7900492,-78.8793535,Matching and updated,POINT (-78.8793535 37.7900492)
2021,January,133,Northumberland County,242,533,66259,,,37.8569736,-76.3796872,Matching and updated,POINT (-76.3796872 37.8569736)
2020,May,630,Fredericksburg City,735,2003,40176.7,,0,38.2992718,-77.4866583,Matching and updated,POINT (-77.4866583 38.2992718)
2020,October,83,Halifax County,385,905,22537,,,36.766461,-78.9396142,Matching and updated,POINT (-78.9396142 36.766461)
2020,July,117,Mecklenburg County,1753,2893,7804,,,36.6872563,-78.3689592,Matching and updated,POINT (-78.3689592 36.6872563)
2020,September,680,Lynchburg City,13832,22985,200785.34,697,11346,37.3990161,-79.1954582,Matching and updated,POINT (-79.1954582 37.3990161)
2019,April,163,Rockbridge County,2647,3090,15194.37,,0,37.8145174,-79.4477537,Matching and updated,POINT (-79.4477537 37.8145174)
2019,January,191,Washington County,1466,4293,76975.1,117,537,36.7478314,-81.9503155,Matching and updated,POINT (-81.9503155 36.7478314)
2020,March,1,Accomack County,1850,5527,100169,340,2531,37.7659435,-75.7578073,Matching and updated,POINT (-75.7578073 37.7659435)
2021,June,83,Halifax County,517,1019,16616,,,36.766461,-78.9396142,Matching and updated,POINT (-78.9396142 36.766461)
2021,April,89,Henry County,2675,6352,69830.36,69,0,36.6206074,-79.9806728,Matching and updated,POINT (-79.9806728 36.6206074)
2019,October,81,Greensville County,98,288,144218,,,36.6802247,-77.5602607,Matching and updated,POINT (-77.5602607 36.6802247)
2019,July,678,Lexington City,739,1578,35147.14,,0,37.7823316,-79.4443196,Matching and updated,POINT (-79.4443196 37.7823316)
2019,September,97,King and Queen County,0,1633,0,,,37.7143698,-76.901863,Matching and updated,POINT (-76.901863 37.7143698)
2019,February,7,Amelia County,152,539,10517,,,37.3319271,-77.9774619,Matching and updated,POINT (-77.9774619 37.3319271)
2020,July,149,Prince George County,52,118,11214,,,37.1873255,-77.2209931,Matching and updated,POINT (-77.2209931 37.1873255)
2019,July,5,Alleghany County,363,997,24425.9,,0,37.7879048,-80.008669,Matching and updated,POINT (-80.008669 37.7879048)
2021,May,595,Emporia City,0,0,0,,,36.696182,-77.5359753,Matching and updated,POINT (-77.5359753 36.696182)
2020,April,59,Fairfax County,14,34,,,,38.8337425,-77.2761174,Matching and updated,POINT (-77.2761174 38.8337425)
2020,December,143,Pittsylvania County,,,0,0,0,36.8217206,-79.3985019,Matching and updated,POINT (-79.3985019 36.8217206)
2020,June,840,Winchester City,2,6,,,,39.1738688,-78.1763562,Matching and updated,POINT (-78.1763562 39.1738688)
2021,April,69,Frederick County,511,7803,39678.62,,0,39.203637,-78.2639164,Matching and updated,POINT (-78.2639164 39.203637)
2019,October,21,Bland County,631,1516,24189.45,,0,37.1306124,-81.1258532,Matching and updated,POINT (-81.1258532 37.1306124)
2020,June,21,Bland County,415,964,11365.7,,0,37.1306124,-81.1258532,Matching and updated,POINT (-81.1258532 37.1306124)
2019,November,11,Appomattox County,1333,2046,25184.01,,0,37.3707253,-78.8109404,Matching and updated,POINT (-78.8109404 37.3707253)
2019,November,595,Emporia City,0,0,0,,,36.696182,-77.5359753,Matching and updated,POINT (-77.5359753 36.696182)
2020,July,105,Lee County,351,958,31069.05,,0,36.7017206,-83.1301117,Matching and updated,POINT (-83.1301117 36.7017206)
2021,September,121,Montgomery County,63,63,15903,,13913,37.1748845,-80.387314,Matching and updated,POINT (-80.387314 37.1748845)
2020,May,113,Madison County,193,504,23002.85,,0,38.4120586,-78.2769613,Matching and updated,POINT (-78.2769613 38.4120586)
2021,March,155,Pulaski County,966,5258,30209.8,200,0,37.0633853,-80.7134439,Matching and updated,POINT (-80.7134439 37.0633853)
2019,October,730,Petersburg City,0,7675,0,,,37.2047302,-77.3923681,Matching and updated,POINT (-77.3923681 37.2047302)
2019,June,760,Richmond City,0,21157,0,,,37.531399,-77.4760085,Matching and updated,POINT (-77.4760085 37.531399)
2019,March,660,Harrisonburg City,2043,6915,128426.45,111,0,38.4316694,-78.8760274,Matching and updated,POINT (-78.8760274 38.4316694)
2020,July,97,King and Queen County,405,844,340343,,,37.7143698,-76.901863,Matching and updated,POINT (-76.901863 37.7143698)
2021,January,135,Nottoway County,245,843,19232,,,37.1436955,-78.0521623,Matching and updated,POINT (-78.0521623 37.1436955)
2021,January,760,Richmond City,0,5693,0,,,37.531399,-77.4760085,Matching and updated,POINT (-77.4760085 37.531399)
2019,December,181,Surry County,112,190,19689,0,,37.1197611,-76.8801717,Matching and updated,POINT (-76.8801717 37.1197611)
2020,January,143,Pittsylvania County,590,1518,20819.98,,0,36.8217206,-79.3985019,Matching and updated,POINT (-79.3985019 36.8217206)
2019,January,800,Suffolk City,1985,5013,73386,180,2771,36.6971573,-76.6347808,Matching and updated,POINT (-76.6347808 36.6971573)
2021,January,117,Mecklenburg County,1709,2771,7291,,,36.6872563,-78.3689592,Matching and updated,POINT (-78.3689592 36.6872563)
2020,March,73,Gloucester County,717,2061,118990,60,1542,37.4035413,-76.5235051,Matching and updated,POINT (-76.5235051 37.4035413)
2019,May,107,Loudoun County,,,7510.6,,,39.0811303,-77.6388572,Matching and updated,POINT (-77.6388572 39.0811303)
2020,November,167,Russell County,1351,2995,33217.45,,0,36.9334198,-82.0959342,Matching and updated,POINT (-82.0959342 36.9334198)
2020,March,35,Carroll County,342,902,10645,,0,36.7324256,-80.728043,Matching and updated,POINT (-80.728043 36.7324256)
2021,January,670,Hopewell City,0,1004,0,,,37.2910098,-77.2989443,Matching and updated,POINT (-77.2989443 37.2910098)
2020,May,678,Lexington City,705,1675,56416.95,,0,37.7823316,-79.4443196,Matching and updated,POINT (-79.4443196 37.7823316)
2021,June,57,Essex County,234,525,14158,,,37.9394802,-76.9418713,Matching and updated,POINT (-76.9418713 37.9394802)
2019,October,678,Lexington City,729,1591,75141.08,,0,37.7823316,-79.4443196,Matching and updated,POINT (-79.4443196 37.7823316)
2019,February,720,Norton City,750,2313,17733.5,,0,36.9315489,-82.625996,Matching and updated,POINT (-82.625996 36.9315489)
2020,September,678,Lexington City,718,1806,66778.38,,0,37.7823316,-79.4443196,Matching and updated,POINT (-79.4443196 37.7823316)
2019,May,83,Halifax County,312,873,18501,,,36.766461,-78.9396142,Matching and updated,POINT (-78.9396142 36.766461)
2019,November,143,Pittsylvania County,,,0,80,2329,36.8217206,-79.3985019,Matching and updated,POINT (-79.3985019 36.8217206)
2020,July,83,Halifax County,418,896,22555,,,36.766461,-78.9396142,Matching and updated,POINT (-78.9396142 36.766461)
2020,October,107,Loudoun County,3131,14186,242776.44,970,21051,39.0811303,-77.6388572,Matching and updated,POINT (-77.6388572 39.0811303)
2019,March,107,Loudoun County,,,6766,,,39.0811303,-77.6388572,Matching and updated,POINT (-77.6388572 39.0811303)
2020,June,115,Mathews County,,,20154,,,37.4253479,-76.2688078,Non-matching,POINT (-76.2688078 37.4253479)
2019,June,590,Danville City,2833,8938,119194.15,,238,36.5833337,-79.4080707,Matching and updated,POINT (-79.4080707 36.5833337)
2019,March,69,Frederick County,2324,4282,44616.74,,0,39.203637,-78.2639164,Matching and updated,POINT (-78.2639164 39.203637)
2019,November,157,Rappahannock County,2,4,,,,38.6845215,-78.1688241,Matching and updated,POINT (-78.1688241 38.6845215)
2020,August,113,Madison County,199,481,33031.03,,0,38.4120586,-78.2769613,Matching and updated,POINT (-78.2769613 38.4120586)
2019,October,540,Charlottesville City,603,8547,47534.29,0,0,38.0376579,-78.4853806,Matching and updated,POINT (-78.4853806 38.0376579)
2020,August,109,Louisa County,1229,2451,26842,,,37.9716808,-77.9591779,Matching and updated,POINT (-77.9591779 37.9716808)
2019,December,680,Lynchburg City,2242,8578,147826.29,1717,17210,37.3990161,-79.1954582,Matching and updated,POINT (-79.1954582 37.3990161)
2019,May,87,Henrico County,7,19,,,,37.4375205,-77.300333,Matching and updated,POINT (-77.300333 37.4375205)
2020,February,650,Hampton City,1580,3855,252831,410,8267,37.0480303,-76.2971486,Matching and updated,POINT (-76.2971486 37.0480303)
2019,September,580,Covington City,402,1550,33785.08,,0,37.7781426,-79.986039,Matching and updated,POINT (-79.986039 37.7781426)
2020,July,510,Alexandria City,,,244157.725,,,38.8183429,-77.0820263,Matching and updated,POINT (-77.0820263 38.8183429)
2019,July,133,Northumberland County,268,654,93843,,,37.8569736,-76.3796872,Matching and updated,POINT (-76.3796872 37.8569736)
2019,December,35,Carroll County,327,830,15423.63,,0,36.7324256,-80.728043,Matching and updated,POINT (-80.728043 36.7324256)
2019,March,161,Roanoke County,157,490,9981,266,2868,37.3310768,-80.1901101,Matching and updated,POINT (-80.1901101 37.3310768)
2021,August,67,Franklin County,524,1557,36248.3,,2520,36.9923498,-79.8839586,Matching and updated,POINT (-79.8839586 36.9923498)
2021,May,85,Hanover County,921,2467,381,,,37.7601655,-77.4909916,Matching and updated,POINT (-77.4909916 37.7601655)
2021,September,143,Pittsylvania County,,,14260.63,,0,36.8217206,-79.3985019,Matching and updated,POINT (-79.3985019 36.8217206)
2019,October,155,Pulaski County,1169,5774,33968.05,45,2714,37.0633853,-80.7134439,Matching and updated,POINT (-80.7134439 37.0633853)
2021,April,730,Petersburg City,775,1990,7519,,,37.2047302,-77.3923681,Matching and updated,POINT (-77.3923681 37.2047302)
2019,March,760,Richmond City,5884,11938,20828,,,37.531399,-77.4760085,Matching and updated,POINT (-77.4760085 37.531399)
2019,October,87,Henrico County,9,21,,,,37.4375205,-77.300333,Matching and updated,POINT (-77.300333 37.4375205)
2021,May,149,Prince George County,107,315,9704,,,37.1873255,-77.2209931,Matching and updated,POINT (-77.2209931 37.1873255)
2020,April,37,Charlotte County,546,1067,0,,,37.0140909,-78.661424,Matching and updated,POINT (-78.661424 37.0140909)
2021,January,730,Petersburg City,795,2048,6851,,,37.2047302,-77.3923681,Matching and updated,POINT (-77.3923681 37.2047302)
2020,April,107,Loudoun County,3742,17084,219387.97,1065,18244,39.0811303,-77.6388572,Matching and updated,POINT (-77.6388572 39.0811303)
2019,August,179,Stafford County,1418,4346,50956,830,996,38.4153856,-77.4548719,Matching and updated,POINT (-77.4548719 38.4153856)
2020,July,23,Botetourt County,394,1376,7841.65,,0,37.553193,-79.8053176,Matching and updated,POINT (-79.8053176 37.553193)
2021,April,153,Prince William County,,,1371915.739,,29565,38.7011187,-77.4795791,Matching and updated,POINT (-77.4795791 38.7011187)
2020,September,31,Campbell County,1301,2822,119699.89,,544,37.210151,-79.0954285,Matching and updated,POINT (-79.0954285 37.210151)
2019,September,143,Pittsylvania County,537,1415,22241,,0,36.8217206,-79.3985019,Matching and updated,POINT (-79.3985019 36.8217206)
2021,February,840,Winchester City,1405,4180,96596.26,129,3570,39.1738688,-78.1763562,Matching and updated,POINT (-78.1763562 39.1738688)
2020,October,117,Mecklenburg County,1916,3155,14900,,,36.6872563,-78.3689592,Matching and updated,POINT (-78.3689592 36.6872563)
2020,July,820,Waynesboro City,152,380,17501.54,80,660,38.0671571,-78.9014197,Matching and updated,POINT (-78.9014197 38.0671571)
2021,April,51,Dickenson County,526,942,14880.8,2,755,37.137081,-82.3492083,Matching and updated,POINT (-82.3492083 37.137081)
2019,July,7,Amelia County,138,404,13129,,,37.3319271,-77.9774619,Matching and updated,POINT (-77.9774619 37.3319271)
2021,May,570,Colonial Heights City,67,133,36028,,,37.2616846,-77.3968043,Matching and updated,POINT (-77.3968043 37.2616846)
2019,May,87,Henrico County,1718,10012,42326,,,37.4375205,-77.300333,Matching and updated,POINT (-77.300333 37.4375205)
2020,April,109,Louisa County,20,64,,,,37.9716808,-77.9591779,Matching and updated,POINT (-77.9591779 37.9716808)
2021,August,35,Carroll County,0,76,2206,,0,36.7324256,-80.728043,Matching and updated,POINT (-80.728043 36.7324256)
2020,December,53,Dinwiddie County,594,1447,1699,,,37.0734984,-77.6354922,Matching and updated,POINT (-77.6354922 37.0734984)
2019,September,183,Sussex County,249,614,8833,0,941,36.9266454,-77.2597319,Matching and updated,POINT (-77.2597319 36.9266454)
2020,January,760,Richmond City,0,12038,0,,,37.531399,-77.4760085,Matching and updated,POINT (-77.4760085 37.531399)
2019,March,570,Colonial Heights City,3,3,51904,,,37.2616846,-77.3968043,Matching and updated,POINT (-77.3968043 37.2616846)
2020,February,23,Botetourt County,176,587,15465.18,,0,37.553193,-79.8053176,Matching and updated,POINT (-79.8053176 37.553193)
2019,October,57,Essex County,297,696,35883,,,37.9394802,-76.9418713,Matching and updated,POINT (-76.9418713 37.9394802)
2020,April,137,Orange County,497,1249,39286.6,,0,38.2504394,-78.0099795,Matching and updated,POINT (-78.0099795 38.2504394)
2021,September,51,Dickenson County,,,10951.58,,213,37.137081,-82.3492083,Matching and updated,POINT (-82.3492083 37.137081)
2021,January,670,Hopewell City,156,297,23644,,,37.2910098,-77.2989443,Matching and updated,POINT (-77.2989443 37.2910098)
2021,February,590,Danville City,2083,5450,149978.9,,0,36.5833337,-79.4080707,Matching and updated,POINT (-79.4080707 36.5833337)
2019,May,145,Powhatan County,148,366,135686,,,37.5494041,-77.9128553,Matching and updated,POINT (-77.9128553 37.5494041)
2019,March,71,Giles County,354,675,11905,70,0,37.3119298,-80.7171778,Matching and updated,POINT (-80.7171778 37.3119298)
2019,October,135,Nottoway County,259,1649,24655,,,37.1436955,-78.0521623,Matching and updated,POINT (-78.0521623 37.1436955)
2019,January,720,Norton City,523,1544,12979.7,,0,36.9315489,-82.625996,Matching and updated,POINT (-82.625996 36.9315489)
2019,February,5,Alleghany County,386,1125,22926.25,,0,37.7879048,-80.008669,Matching and updated,POINT (-80.008669 37.7879048)
2019,October,141,Patrick County,1064,2822,21375.95,,0,36.6673274,-80.2861409,Matching and updated,POINT (-80.2861409 36.6673274)
2020,May,109,Louisa County,21,65,,,,37.9716808,-77.9591779,Matching and updated,POINT (-77.9591779 37.9716808)
2019,October,740,Portsmouth City,2714,8456,125045,560,12884,36.8594298,-76.3562686,Matching and updated,POINT (-76.3562686 36.8594298)
2019,August,678,Lexington City,704,1594,42186.67,,0,37.7823316,-79.4443196,Matching and updated,POINT (-79.4443196 37.7823316)
2019,February,760,Richmond City,0,79586,0,,,37.531399,-77.4760085,Matching and updated,POINT (-77.4760085 37.531399)
2021,May,163,Rockbridge County,128,5680,4581.94,,0,37.8145174,-79.4477537,Matching and updated,POINT (-79.4477537 37.8145174)
2021,April,57,Essex County,234,517,21949,,,37.9394802,-76.9418713,Matching and updated,POINT (-76.9418713 37.9394802)
2019,April,760,Richmond City,0,184936,0,,,37.531399,-77.4760085,Matching and updated,POINT (-77.4760085 37.531399)
2019,August,91,Highland County,201,371,8876.5,,0,38.3566717,-79.5679583,Matching and updated,POINT (-79.5679583 38.3566717)
2020,June,680,Lynchburg City,9834,14995,204103.64,1075,3065,37.3990161,-79.1954582,Matching and updated,POINT (-79.1954582 37.3990161)
2021,April,197,Wythe County,796,1565,18155.8,,0,36.9014709,-81.084209,Matching and updated,POINT (-81.084209 36.9014709)
2021,January,121,Montgomery County,747,1812,36832.8,522,6411,37.1748845,-80.387314,Matching and updated,POINT (-80.387314 37.1748845)
2021,May,35,Carroll County,209,527,9756.08,,0,36.7324256,-80.728043,Matching and updated,POINT (-80.728043 36.7324256)
2021,May,840,Winchester City,1344,3907,132881.19,140,3412,39.1738688,-78.1763562,Matching and updated,POINT (-78.1763562 39.1738688)
2020,January,143,Pittsylvania County,,,0,78,2332,36.8217206,-79.3985019,Matching and updated,POINT (-79.3985019 36.8217206)
2019,January,163,Rockbridge County,375,2084,20098.63,,0,37.8145174,-79.4477537,Matching and updated,POINT (-79.4477537 37.8145174)
2020,August,13,Arlington County,,,44525.51142,,,38.8783374,-77.1007034,Matching and updated,POINT (-77.1007034 38.8783374)
2019,April,740,Portsmouth City,3479,8756,107055,585,9596,36.8594298,-76.3562686,Matching and updated,POINT (-76.3562686 36.8594298)
2021,February,760,Richmond City,0,6871,0,,,37.531399,-77.4760085,Matching and updated,POINT (-77.4760085 37.531399)
2021,April,59,Fairfax County,,,1838062.863,,71047,38.8337425,-77.2761174,Matching and updated,POINT (-77.2761174 38.8337425)
2020,December,75,Goochland County,123,563,115814,,,37.7241655,-77.9142733,Matching and updated,POINT (-77.9142733 37.7241655)
2020,August,191,Washington County,2642,4997,139758.93,,0,36.7478314,-81.9503155,Matching and updated,POINT (-81.9503155 36.7478314)
2020,December,59,Fairfax County,,,1403125.945,,60647,38.8337425,-77.2761174,Matching and updated,POINT (-77.2761174 38.8337425)
2019,December,85,Hanover County,73,185,,,,37.7601655,-77.4909916,Matching and updated,POINT (-77.4909916 37.7601655)
2019,September,103,Lancaster County,397,773,68432,,,37.7038307,-76.4131985,Matching and updated,POINT (-76.4131985 37.7038307)
2019,June,185,Tazewell County,1705,4781,41550.45,,0,37.1253949,-81.5629237,Matching and updated,POINT (-81.5629237 37.1253949)
2019,October,660,Harrisonburg City,2673,9398,163819.82,279,1976,38.4316694,-78.8760274,Matching and updated,POINT (-78.8760274 38.4316694)
2019,April,99,King George County,336,861,10825,498,340,38.2771787,-77.1627015,Matching and updated,POINT (-77.1627015 38.2771787)
2020,February,720,Norton City,425,1240,26815.95,,0,36.9315489,-82.625996,Matching and updated,POINT (-82.625996 36.9315489)
2020,December,65,Fluvanna County,328,594,22258.4,,1215,37.8305761,-78.2844345,Matching and updated,POINT (-78.2844345 37.8305761)
2019,September,21,Bland County,573,1367,21298.2,,0,37.1306124,-81.1258532,Matching and updated,POINT (-81.1258532 37.1306124)
2019,December,183,Sussex County,206,481,16572,130,1797,36.9266454,-77.2597319,Matching and updated,POINT (-77.2597319 36.9266454)
2019,June,530,Buena Vista City,973,1683,28381.16,,0,37.7316634,-79.3563746,Matching and updated,POINT (-79.3563746 37.7316634)
2021,March,145,Powhatan County,85,381,94875,,,37.5494041,-77.9128553,Matching and updated,POINT (-77.9128553 37.5494041)
2020,April,167,Russell County,841,2097,24970.6,,0,36.9334198,-82.0959342,Matching and updated,POINT (-82.0959342 36.9334198)
2021,May,49,Cumberland County,877,1338,49574,,,37.5201891,-78.2528364,Matching and updated,POINT (-78.2528364 37.5201891)
2019,August,135,Nottoway County,239,1323,35244,,,37.1436955,-78.0521623,Matching and updated,POINT (-78.0521623 37.1436955)
2020,May,710,Norfolk City,4931,20470,532208,1620,839,36.9230149,-76.2446413,Matching and updated,POINT (-76.2446413 36.9230149)
2020,June,33,Caroline County,560,1468,16696.13,,0,38.0303193,-77.3523482,Matching and updated,POINT (-77.3523482 38.0303193)
2020,December,63,Floyd County,411,1015,20065.81,,0,36.9314381,-80.3503087,Matching and updated,POINT (-80.3503087 36.9314381)
2021,June,119,Middlesex County,450,711,8017,,,37.6069753,-76.5280819,Matching and updated,POINT (-76.5280819 37.6069753)
2019,November,820,Waynesboro City,407,1498,25006.57,164,5712,38.0671571,-78.9014197,Matching and updated,POINT (-78.9014197 38.0671571)
2019,May,121,Montgomery County,1139,3140,41693.47,927,7799,37.1748845,-80.387314,Matching and updated,POINT (-80.387314 37.1748845)
2020,August,595,Emporia City,60,80,24509,,,36.696182,-77.5359753,Matching and updated,POINT (-77.5359753 36.696182)
2019,February,36,Charles City County,5,9,9465,,,37.3610537,-77.05417,Matching and updated,POINT (-77.05417 37.3610537)
2020,August,678,Lexington City,674,1632,32961.48,,0,37.7823316,-79.4443196,Matching and updated,POINT (-79.4443196 37.7823316)
2019,March,81,Greensville County,129,385,148178,,,36.6802247,-77.5602607,Matching and updated,POINT (-77.5602607 36.6802247)
2019,September,149,Prince George County,416,1186,8127,,,37.1873255,-77.2209931,Matching and updated,POINT (-77.2209931 37.1873255)
2020,September,65,Fluvanna County,326,1039,39073.24,,1863,37.8305761,-78.2844345,Matching and updated,POINT (-78.2844345 37.8305761)
2019,January,11,Appomattox County,712,1135,25594.84,,0,37.3707253,-78.8109404,Matching and updated,POINT (-78.8109404 37.3707253)
2020,June,121,Montgomery County,625,4233,31848.75,320,14425,37.1748845,-80.387314,Matching and updated,POINT (-80.387314 37.1748845)
2019,April,550,Chesapeake City,3770,10613,229066,285,4592,36.6793761,-76.3017884,Matching and updated,POINT (-76.3017884 36.6793761)
2019,April,107,Loudoun County,2279,8311,178266.69,1124,18366,39.0811303,-77.6388572,Matching and updated,POINT (-77.6388572 39.0811303)
2020,September,51,Dickenson County,948,1925,43440.35,,0,37.137081,-82.3492083,Matching and updated,POINT (-82.3492083 37.137081)
2020,March,810,Virginia Beach City,3799,14348,165141,225,1961,36.7793219,-76.0240202,Matching and updated,POINT (-76.0240202 36.7793219)
2020,May,45,Craig County,109,129,6350,23,0,37.4731287,-80.231734,Matching and updated,POINT (-80.231734 37.4731287)
2019,October,27,Buchanan County,1624,3436,104954.95,221,0,37.2681198,-82.0381508,Matching and updated,POINT (-82.0381508 37.2681198)
2019,February,17,Bath County,85,248,18500.13,,0,38.0689876,-79.732898,Matching and updated,POINT (-79.732898 38.0689876)
2019,September,97,King and Queen County,17,33,,,,37.7143698,-76.901863,Matching and updated,POINT (-76.901863 37.7143698)
2020,January,690,Martinsville City,485,2162,11183.8,,180,36.6835269,-79.8636475,Matching and updated,POINT (-79.8636475 36.6835269)
2019,April,121,Montgomery County,1032,2818,26544.72,960,9814,37.1748845,-80.387314,Matching and updated,POINT (-80.387314 37.1748845)
2020,December,89,Henry County,3727,8753,109135.92,667,0,36.6206074,-79.9806728,Matching and updated,POINT (-79.9806728 36.6206074)
2020,April,99,King George County,271,711,837.08,,0,38.2771787,-77.1627015,Matching and updated,POINT (-77.1627015 38.2771787)
2021,July,19,Bedford County,741,2338,90646.21,,0,37.3124079,-79.5279466,Matching and updated,POINT (-79.5279466 37.3124079)
2020,May,97,King and Queen County,32,39,,,,37.7143698,-76.901863,Matching and updated,POINT (-76.901863 37.7143698)
2019,February,33,Caroline County,905,2416,21910,1082,2598,38.0303193,-77.3523482,Matching and updated,POINT (-77.3523482 38.0303193)
2020,September,15,Augusta County,2127,5344,229672.68,15,3002,38.1678073,-79.1466816,Matching and updated,POINT (-79.1466816 38.1678073)
2020,February,193,Westmoreland County,382,943,8445,,,38.109238,-76.8040731,Matching and updated,POINT (-76.8040731 38.109238)
2020,July,169,Scott County,452,881,21171.28,,0,36.7127783,-82.6136268,Matching and updated,POINT (-82.6136268 36.7127783)
2019,July,63,Floyd County,374,1022,17862,,0,36.9314381,-80.3503087,Matching and updated,POINT (-80.3503087 36.9314381)
2019,March,73,Gloucester County,764,2385,93233,60,1270,37.4035413,-76.5235051,Matching and updated,POINT (-76.5235051 37.4035413)
2019,August,670,Hopewell City,96,143,12200,,,37.2910098,-77.2989443,Matching and updated,POINT (-77.2989443 37.2910098)
2021,May,121,Montgomery County,661,6216,32680.91,51,10950,37.1748845,-80.387314,Matching and updated,POINT (-80.387314 37.1748845)
2021,January,77,Grayson County,635,1888,39147.61,90,860,36.6563026,-81.2253365,Matching and updated,POINT (-81.2253365 36.6563026)
2019,June,15,Augusta County,2681,7116,280711.05,486,12985,38.1678073,-79.1466816,Matching and updated,POINT (-79.1466816 38.1678073)
2019,March,145,Powhatan County,142,349,107508,,,37.5494041,-77.9128553,Matching and updated,POINT (-77.9128553 37.5494041)
2020,June,45,Craig County,51,51,10771,8,0,37.4731287,-80.231734,Matching and updated,POINT (-80.231734 37.4731287)
2020,November,65,Fluvanna County,473,794,37924.6,132,2700,37.8305761,-78.2844345,Matching and updated,POINT (-78.2844345 37.8305761)
2020,April,57,Essex County,32,88,,,,37.9394802,-76.9418713,Matching and updated,POINT (-76.9418713 37.9394802)
2020,November,61,Fauquier County,888,2170,37017.49,,0,38.7441032,-77.8215847,Matching and updated,POINT (-77.8215847 38.7441032)
2019,July,670,Hopewell City,105,167,10979,,,37.2910098,-77.2989443,Matching and updated,POINT (-77.2989443 37.2910098)
2019,October,760,Richmond City,0,16272,0,,,37.531399,-77.4760085,Matching and updated,POINT (-77.4760085 37.531399)
2019,May,570,Colonial Heights City,0,1810,0,,,37.2616846,-77.3968043,Matching and updated,POINT (-77.3968043 37.2616846)
2020,April,3,Albemarle County,3227,7937,220083.1,,471,38.0241841,-78.5535056,Matching and updated,POINT (-78.5535056 38.0241841)
2020,December,119,Middlesex County,513,820,6051,,,37.6069753,-76.5280819,Matching and updated,POINT (-76.5280819 37.6069753)
2020,October,109,Louisa County,1213,2451,39434,,,37.9716808,-77.9591779,Matching and updated,POINT (-77.9591779 37.9716808)
2019,March,197,Wythe County,857,2195,24050.5,,0,36.9014709,-81.084209,Matching and updated,POINT (-81.084209 36.9014709)
2019,February,101,King William County,3,10,,,,37.7082604,-77.0910539,Matching and updated,POINT (-77.0910539 37.7082604)
2021,February,35,Carroll County,250,638,14029.1,,0,36.7324256,-80.728043,Matching and updated,POINT (-80.728043 36.7324256)
2020,April,93,Isle of Wight County,668,1499,35796,60,0,36.9014184,-76.7075688,Matching and updated,POINT (-76.7075688 36.9014184)
2020,February,121,Montgomery County,977,5520,33516.8,1072,11517,37.1748845,-80.387314,Matching and updated,POINT (-80.387314 37.1748845)
2019,July,167,Russell County,1,2,,,,36.9334198,-82.0959342,Matching and updated,POINT (-82.0959342 36.9334198)
2020,April,63,Floyd County,428,1054,10904.42,,0,36.9314381,-80.3503087,Matching and updated,POINT (-80.3503087 36.9314381)
2020,June,23,Botetourt County,301,1076,12040.3,,0,37.553193,-79.8053176,Matching and updated,POINT (-79.8053176 37.553193)
2019,June,87,Henrico County,1731,9154,44831,,,37.4375205,-77.300333,Matching and updated,POINT (-77.300333 37.4375205)
2019,February,31,Campbell County,839,1880,82731.78,229,2246,37.210151,-79.0954285,Matching and updated,POINT (-79.0954285 37.210151)
2020,April,735,Poquoson City,74,228,7345,0,,37.1283599,-76.3035337,Matching and updated,POINT (-76.3035337 37.1283599)
2020,May,735,Poquoson City,70,212,9755,0,,37.1283599,-76.3035337,Matching and updated,POINT (-76.3035337 37.1283599)
2019,November,830,Williamsburg City,382,1055,59802,35,4680,37.269293,-76.7067172,Matching and updated,POINT (-76.7067172 37.269293)
2019,May,165,Rockingham County,1929,3695,94080.31,,0,38.5112574,-78.876307,Matching and updated,POINT (-78.876307 38.5112574)
2019,August,185,Tazewell County,2145,4947,64547.85,40,54,37.1253949,-81.5629237,Matching and updated,POINT (-81.5629237 37.1253949)
2020,January,173,Smyth County,1177,4033,128609.85,593,10808,36.8423183,-81.5397861,Matching and updated,POINT (-81.5397861 36.8423183)
2021,March,36,Charles City County,166,500,59521,,,37.3610537,-77.05417,Matching and updated,POINT (-77.05417 37.3610537)
2020,February,75,Goochland County,164,641,34521,,,37.7241655,-77.9142733,Matching and updated,POINT (-77.9142733 37.7241655)
2020,September,9,Amherst County,1382,2976,87223.65,1275,6765,37.6303621,-79.1478477,Matching and updated,POINT (-79.1478477 37.6303621)
2021,June,87,Henrico County,2735,11156,60690,,,37.4375205,-77.300333,Matching and updated,POINT (-77.300333 37.4375205)
2020,November,155,Pulaski County,1382,6161,32715.43,200,0,37.0633853,-80.7134439,Matching and updated,POINT (-80.7134439 37.0633853)
2020,March,137,Orange County,297,677,19123.6,,0,38.2504394,-78.0099795,Matching and updated,POINT (-78.0099795 38.2504394)
2021,August,51,Dickenson County,618,1023,25274.25,,229,37.137081,-82.3492083,Matching and updated,POINT (-82.3492083 37.137081)
2020,March,840,Winchester City,1949,5764,116331.25,962,65289,39.1738688,-78.1763562,Matching and updated,POINT (-78.1763562 39.1738688)
2019,May,119,Middlesex County,545,848,12808,,,37.6069753,-76.5280819,Matching and updated,POINT (-76.5280819 37.6069753)
2021,June,5,Alleghany County,118,296,17806.58,,0,37.7879048,-80.008669,Matching and updated,POINT (-80.008669 37.7879048)
2020,June,89,Henry County,2859,7113,90018.5,529,0,36.6206074,-79.9806728,Matching and updated,POINT (-79.9806728 36.6206074)
2020,September,13,Arlington County,,,44453.70406,,,38.8783374,-77.1007034,Matching and updated,POINT (-77.1007034 38.8783374)
2020,January,163,Rockbridge County,100,2815,11987.13,,0,37.8145174,-79.4477537,Matching and updated,POINT (-79.4477537 37.8145174)
2019,August,169,Scott County,638,1423,21450.7,,380,36.7127783,-82.6136268,Matching and updated,POINT (-82.6136268 36.7127783)
2020,August,143,Pittsylvania County,514,1323,23521.95,,0,36.8217206,-79.3985019,Matching and updated,POINT (-79.3985019 36.8217206)
2021,May,97,King and Queen,,,153234,,,37.7143698,-76.901863,Non-matching,POINT (-76.901863 37.7143698)
2019,January,660,Harrisonburg City,1784,6129,166284.7,42,704,38.4316694,-78.8760274,Matching and updated,POINT (-78.8760274 38.4316694)
2020,January,53,Dinwiddie County,272,1031,448,,,37.0734984,-77.6354922,Matching and updated,POINT (-77.6354922 37.0734984)
2019,March,171,Shenandoah County,1136,2989,67732.07,,0,38.856204,-78.5739867,Matching and updated,POINT (-78.5739867 38.856204)
2021,June,61,Fauquier County,625,1537,47606.99,,0,38.7441032,-77.8215847,Matching and updated,POINT (-77.8215847 38.7441032)
2019,June,540,Charlottesville City,627,3612,43889.55,,11952,38.0376579,-78.4853806,Matching and updated,POINT (-78.4853806 38.0376579)
2019,July,760,Richmond City,0,19953,0,,,37.531399,-77.4760085,Matching and updated,POINT (-77.4760085 37.531399)
2019,November,69,Frederick County,2743,7386,61524.01,,0,39.203637,-78.2639164,Matching and updated,POINT (-78.2639164 39.203637)
2020,February,33,Caroline County,876,2312,29598.08,292,4476,38.0303193,-77.3523482,Matching and updated,POINT (-77.3523482 38.0303193)
2019,August,193,Westmoreland County,415,1053,9311,,,38.109238,-76.8040731,Matching and updated,POINT (-76.8040731 38.109238)
2021,September,35,Carroll County,111,246,13450.23,,0,36.7324256,-80.728043,Matching and updated,POINT (-80.728043 36.7324256)
2019,August,137,Orange County,603,1566,46913.59,,0,38.2504394,-78.0099795,Matching and updated,POINT (-78.0099795 38.2504394)
2020,January,570,Colonial Heights City,100,255,60658,,,37.2616846,-77.3968043,Matching and updated,POINT (-77.3968043 37.2616846)
2021,September,185,Tazewell County,,,36615.2,,0,37.1253949,-81.5629237,Matching and updated,POINT (-81.5629237 37.1253949)
2020,January,171,Shenandoah County,1240,3196,75434.59,,0,38.856204,-78.5739867,Matching and updated,POINT (-78.5739867 38.856204)
2019,January,159,Richmond County,1,1,,,,37.9428935,-76.7305609,Matching and updated,POINT (-76.7305609 37.9428935)
2021,January,137,Orange County,595,1552,25807.72,,0,38.2504394,-78.0099795,Matching and updated,POINT (-78.0099795 38.2504394)
2021,July,5,Alleghany County,109,319,31325.94,,0,37.7879048,-80.008669,Matching and updated,POINT (-80.008669 37.7879048)
2019,November,540,Charlottesville City,1184,8989,47194.43,0,0,38.0376579,-78.4853806,Matching and updated,POINT (-78.4853806 38.0376579)
2020,March,15,Augusta County,2639,6449,259542.81,160,2975,38.1678073,-79.1466816,Matching and updated,POINT (-79.1466816 38.1678073)
2021,March,35,Carroll County,223,552,12243,,0,36.7324256,-80.728043,Matching and updated,POINT (-80.728043 36.7324256)
2021,May,580,Covington City,149,499,20528.26,,0,37.7781426,-79.986039,Matching and updated,POINT (-79.986039 37.7781426)
2020,August,670,Hopewell City,64,145,25556,,,37.2910098,-77.2989443,Matching and updated,POINT (-77.2989443 37.2910098)
2019,February,167,Russell County,913,1887,38243.85,,0,36.9334198,-82.0959342,Matching and updated,POINT (-82.0959342 36.9334198)
2021,July,67,Franklin County,492,1431,19363.25,,2360,36.9923498,-79.8839586,Matching and updated,POINT (-79.8839586 36.9923498)
2020,March,147,Prince Edward County,1293,2159,28013,,,37.2248813,-78.4329574,Matching and updated,POINT (-78.4329574 37.2248813)
2019,November,95,James City County,185,488,54950,245,2504,37.3244273,-76.7783194,Matching and updated,POINT (-76.7783194 37.3244273)
2019,January,97,King and Queen,1,1,45218,,,37.7143698,-76.901863,Non-matching,POINT (-76.901863 37.7143698)
2019,January,181,Surry County,69,140,28639,0,,37.1197611,-76.8801717,Matching and updated,POINT (-76.8801717 37.1197611)
2021,June,9,Amherst County,1085,2380,79983,939,0,37.6303621,-79.1478477,Matching and updated,POINT (-79.1478477 37.6303621)
2019,November,36,Charles City County,337,901,15196,,,37.3610537,-77.05417,Matching and updated,POINT (-77.05417 37.3610537)
2019,September,36,Charles City County,274,705,11118,,,37.3610537,-77.05417,Matching and updated,POINT (-77.05417 37.3610537)
2019,November,153,Prince William County,37,122,354,,0,38.7011187,-77.4795791,Matching and updated,POINT (-77.4795791 38.7011187)
2021,April,137,Orange County,578,1157,33190.09,,0,38.2504394,-78.0099795,Matching and updated,POINT (-78.0099795 38.2504394)
2019,April,33,Caroline County,840,2119,23783,1313,2271,38.0303193,-77.3523482,Matching and updated,POINT (-77.3523482 38.0303193)
2019,December,149,Prince George County,227,591,7609,,,37.1873255,-77.2209931,Matching and updated,POINT (-77.2209931 37.1873255)
2021,April,17,Bath County,284,530,20035.52,134,0,38.0689876,-79.732898,Matching and updated,POINT (-79.732898 38.0689876)
2019,February,75,Goochland County,11,898,32972,,,37.7241655,-77.9142733,Matching and updated,POINT (-77.9142733 37.7241655)
2019,July,77,Grayson County,634,1827,9032,,0,36.6563026,-81.2253365,Matching and updated,POINT (-81.2253365 36.6563026)
2021,April,530,Buena Vista City,218,546,28554.58,,0,37.7316634,-79.3563746,Matching and updated,POINT (-79.3563746 37.7316634)
2019,December,1,Accomack County,2001,5887,108224,340,4831,37.7659435,-75.7578073,Matching and updated,POINT (-75.7578073 37.7659435)
2020,May,141,Patrick County,898,2362,45857.9,,0,36.6673274,-80.2861409,Matching and updated,POINT (-80.2861409 36.6673274)
2021,March,183,Sussex County,155,419,11168,,,36.9266454,-77.2597319,Matching and updated,POINT (-77.2597319 36.9266454)
2020,December,49,Cumberland County,566,832,56827,,,37.5201891,-78.2528364,Matching and updated,POINT (-78.2528364 37.5201891)
2020,June,103,Lancaster County,499,963,83401,,,37.7038307,-76.4131985,Matching and updated,POINT (-76.4131985 37.7038307)
2021,April,71,Giles County,121,121,13806,,0,37.3119298,-80.7171778,Matching and updated,POINT (-80.7171778 37.3119298)
2019,September,570,Colonial Heights City,0,1581,0,,,37.2616846,-77.3968043,Matching and updated,POINT (-77.3968043 37.2616846)
2020,June,735,Poquoson City,60,186,8987,,,37.1283599,-76.3035337,Matching and updated,POINT (-76.3035337 37.1283599)
2020,April,61,Fauquier County,4,14,,,,38.7441032,-77.8215847,Matching and updated,POINT (-77.8215847 38.7441032)
2019,August,191,Washington County,1457,4265,85081.25,80,770,36.7478314,-81.9503155,Matching and updated,POINT (-81.9503155 36.7478314)
2020,May,650,Hampton City,1320,3621,311772,410,10819,37.0480303,-76.2971486,Matching and updated,POINT (-76.2971486 37.0480303)
2021,February,143,Pittsylvania County,489,1092,28142.88,,0,36.8217206,-79.3985019,Matching and updated,POINT (-79.3985019 36.8217206)
2021,April,520,Bristol City,149,827,4390,82,476,36.6169541,-82.1575641,Matching and updated,POINT (-82.1575641 36.6169541)
2020,February,197,Wythe County,986,2554,25050.45,,0,36.9014709,-81.084209,Matching and updated,POINT (-81.084209 36.9014709)
2019,June,187,Warren County,2,4,,,,38.9081874,-78.2071314,Matching and updated,POINT (-78.2071314 38.9081874)
2020,October,678,Lexington City,774,1869,40803.31,,0,37.7823316,-79.4443196,Matching and updated,POINT (-79.4443196 37.7823316)
2020,March,760,Richmond City,7036,14327,24412,,,37.531399,-77.4760085,Matching and updated,POINT (-77.4760085 37.531399)
2020,June,5,Alleghany County,205,550,17480.55,,0,37.7879048,-80.008669,Matching and updated,POINT (-80.008669 37.7879048)
2020,February,510,Alexandria City,,,65068.97075,,5391,38.8183429,-77.0820263,Matching and updated,POINT (-77.0820263 38.8183429)
2020,April,121,Montgomery County,10,26,,,,37.1748845,-80.387314,Matching and updated,POINT (-80.387314 37.1748845)
2019,November,19,Bedford County,1395,4383,69091.53,78,481,37.3124079,-79.5279466,Matching and updated,POINT (-79.5279466 37.3124079)
2020,March,159,Richmond County,5,9,,,,37.9428935,-76.7305609,Matching and updated,POINT (-76.7305609 37.9428935)
2020,April,85,Hanover County,699,1988,403,,,37.7601655,-77.4909916,Matching and updated,POINT (-77.4909916 37.7601655)
2020,April,750,Radford City,766,1928,23954.77,154,0,37.120036,-80.5570481,Matching and updated,POINT (-80.5570481 37.120036)
2020,August,43,CLARKE COUNTY,122,241,10634.65,61,921,39.1159309,-77.9920039,Matching and updated,POINT (-77.9920039 39.1159309)
2019,March,36,Charles City County,104,253,11732,,,37.3610537,-77.05417,Matching and updated,POINT (-77.05417 37.3610537)
2020,September,29,Buckingham County,975,1815,52200.24,,0,37.573928,-78.5291687,Matching and updated,POINT (-78.5291687 37.573928)
2019,July,510,Alexandria City,,,59118.63526,,115,38.8183429,-77.0820263,Matching and updated,POINT (-77.0820263 38.8183429)
2020,April,67,Franklin County,787,2152,49527.6,,0,36.9923498,-79.8839586,Matching and updated,POINT (-79.8839586 36.9923498)
2020,August,167,Russell County,796,1802,31238.22,,0,36.9334198,-82.0959342,Matching and updated,POINT (-82.0959342 36.9334198)
2021,March,81,Greensville County,46,206,278926,,,36.6802247,-77.5602607,Matching and updated,POINT (-77.5602607 36.6802247)
2019,April,131,Northampton County,338,695,9610,85,1690,37.3026286,-75.9238683,Matching and updated,POINT (-75.9238683 37.3026286)
2019,August,810,Virginia Beach City,4733,20691,300298,0,0,36.7793219,-76.0240202,Matching and updated,POINT (-76.0240202 36.7793219)
2019,October,510,Alexandria City,,,52570.88959,,10233,38.8183429,-77.0820263,Matching and updated,POINT (-77.0820263 38.8183429)
2021,July,161,Roanoke County,223,711,18548.53,,1817,37.3310768,-80.1901101,Matching and updated,POINT (-80.1901101 37.3310768)
2019,March,97,King and Queen,,,52245,,,37.7143698,-76.901863,Non-matching,POINT (-76.901863 37.7143698)
2019,July,145,Powhatan County,141,375,96689,,,37.5494041,-77.9128553,Matching and updated,POINT (-77.9128553 37.5494041)
2020,August,135,Nottoway County,279,908,28820,,,37.1436955,-78.0521623,Matching and updated,POINT (-78.0521623 37.1436955)
2019,March,760,Richmond City,0,85013,0,,,37.531399,-77.4760085,Matching and updated,POINT (-77.4760085 37.531399)
2019,March,790,STAUNTON CITY,580,5060,26291.12,,889,38.1580558,-79.0615011,Matching and updated,POINT (-79.0615011 38.1580558)
2020,January,179,Stafford County,1311,3787,52701.39,437,1677,38.4153856,-77.4548719,Matching and updated,POINT (-77.4548719 38.4153856)
2019,May,133,Northumberland County,259,626,73567,,,37.8569736,-76.3796872,Matching and updated,POINT (-76.3796872 37.8569736)
2020,May,59,Fairfax County,,,812049.802,,,38.8337425,-77.2761174,Matching and updated,POINT (-77.2761174 38.8337425)
2020,February,41,Chesterfield County,1898,7731,287398,,,37.3784338,-77.5858474,Matching and updated,POINT (-77.5858474 37.3784338)
